<?xml version="1.0" encoding="UTF-8"?>
<gpx
 version="1.1"
 creator="Navaid Waypoint Generator - http://navaid.com/GPX/"
 xmlns:xsi="http://www.w3.org/2001/XMLSchema-instance"
 xmlns="http://www.topografix.com/GPX/1/1"
 xmlns:navaid="http://navaid.com/GPX/NAVAID/1/0"
 xsi:schemaLocation="http://www.topografix.com/GPX/1/1 http://www.topografix.com/GPX/1/1/gpx.xsd
 http://navaid.com/GPX/NAVAID/1/0 http://navaid.com/GPX/NAVAID/1/0">
 <metadata>
    <author>
        <name>Paul Tomblin</name>
        <email id="ptomblin" domain="xcski.com"/>
        <link href="http://blog.xcski.com/"/>
    </author>
    <link href="http://navaid.com/GPX/"/>
</metadata>
<wpt lat="50.499397" lon="-120.987931">
<magvar>341.6</magvar>
<name>STOAN</name>
<cmt>STOAN,BC,CA</cmt>
<type>REP-PT</type>
<extensions>
<navaid:name>STOAN</navaid:name>
<navaid:state>BC</navaid:state>
<navaid:country>CA</navaid:country>
<navaid:lastupdate>2008-08-12</navaid:lastupdate>
<navaid:magvar>-18.41</navaid:magvar>
</extensions>
</wpt>
<wpt lat="49.718333" lon="-123.131667">
<magvar>341.5</magvar>
<name>SKYPO</name>
<cmt>SKYPO,BC,CA</cmt>
<type>REP-PT</type>
<extensions>
<navaid:name>SKYPO</navaid:name>
<navaid:state>BC</navaid:state>
<navaid:country>CA</navaid:country>
<navaid:lastupdate>2008-08-12</navaid:lastupdate>
<navaid:magvar>-18.58</navaid:magvar>
</extensions>
</wpt>
<wpt lat="49.775000" lon="-121.396667">
<magvar>341.8</magvar>
<name>SPUZZ</name>
<cmt>SPUZZ,BC,CA</cmt>
<type>REP-PT</type>
<extensions>
<navaid:name>SPUZZ</navaid:name>
<navaid:state>BC</navaid:state>
<navaid:country>CA</navaid:country>
<navaid:lastupdate>2008-08-12</navaid:lastupdate>
<navaid:magvar>-18.24</navaid:magvar>
</extensions>
</wpt>
<wpt lat="49.618333" lon="-122.706667">
<magvar>341.6</magvar>
<name>ALVYN</name>
<cmt>ALVYN,BC,CA</cmt>
<type>REP-PT</type>
<extensions>
<navaid:name>ALVYN</navaid:name>
<navaid:state>BC</navaid:state>
<navaid:country>CA</navaid:country>
<navaid:lastupdate>2008-08-12</navaid:lastupdate>
<navaid:magvar>-18.46</navaid:magvar>
</extensions>
</wpt>
<wpt lat="49.670000" lon="-123.615000">
<magvar>341.4</magvar>
<name>CEESE</name>
<cmt>CEESE,BC,CA</cmt>
<type>REP-PT</type>
<extensions>
<navaid:name>CEESE</navaid:name>
<navaid:state>BC</navaid:state>
<navaid:country>CA</navaid:country>
<navaid:lastupdate>2008-08-12</navaid:lastupdate>
<navaid:magvar>-18.65</navaid:magvar>
</extensions>
</wpt>
<wpt lat="49.776667" lon="-121.393333">
<magvar>341.8</magvar>
<name>IKBAK</name>
<cmt>IKBAK,BC,CA</cmt>
<type>REP-PT</type>
<extensions>
<navaid:name>IKBAK</navaid:name>
<navaid:state>BC</navaid:state>
<navaid:country>CA</navaid:country>
<navaid:lastupdate>2008-08-12</navaid:lastupdate>
<navaid:magvar>-18.24</navaid:magvar>
</extensions>
</wpt>
<wpt lat="49.675944" lon="-122.493203">
<magvar>341.6</magvar>
<name>JANEK</name>
<cmt>JANEK (YVR 014/037),BC,CA</cmt>
<type>REP-PT</type>
<extensions>
<navaid:name>JANEK (YVR 014/037)</navaid:name>
<navaid:state>BC</navaid:state>
<navaid:country>CA</navaid:country>
<navaid:lastupdate>2008-08-12</navaid:lastupdate>
<navaid:magvar>-18.44</navaid:magvar>
</extensions>
</wpt>
<wpt lat="49.616667" lon="-120.760000">
<magvar>342.0</magvar>
<name>THYNE</name>
<cmt>THYNE,BC,CA</cmt>
<type>REP-PT</type>
<extensions>
<navaid:name>THYNE</navaid:name>
<navaid:state>BC</navaid:state>
<navaid:country>CA</navaid:country>
<navaid:lastupdate>2008-08-12</navaid:lastupdate>
<navaid:magvar>-18.03</navaid:magvar>
</extensions>
</wpt>
<wpt lat="49.756667" lon="-119.966667">
<magvar>342.2</magvar>
<name>PNASK</name>
<cmt>PNASK,BC,CA</cmt>
<type>REP-PT</type>
<extensions>
<navaid:name>PNASK</navaid:name>
<navaid:state>BC</navaid:state>
<navaid:country>CA</navaid:country>
<navaid:lastupdate>2008-08-12</navaid:lastupdate>
<navaid:magvar>-17.88</navaid:magvar>
</extensions>
</wpt>
<wpt lat="49.753333" lon="-119.851667">
<magvar>342.2</magvar>
<name>GRASE</name>
<cmt>GRASE,BC,CA</cmt>
<type>REP-PT</type>
<extensions>
<navaid:name>GRASE</navaid:name>
<navaid:state>BC</navaid:state>
<navaid:country>CA</navaid:country>
<navaid:lastupdate>2008-08-12</navaid:lastupdate>
<navaid:magvar>-17.85</navaid:magvar>
</extensions>
</wpt>
<wpt lat="50.249717" lon="-121.845169">
<magvar>341.6</magvar>
<name>LYTON</name>
<cmt>LYTON,BC,CA</cmt>
<type>REP-PT</type>
<extensions>
<navaid:name>LYTON</navaid:name>
<navaid:state>BC</navaid:state>
<navaid:country>CA</navaid:country>
<navaid:lastupdate>2008-08-12</navaid:lastupdate>
<navaid:magvar>-18.49</navaid:magvar>
</extensions>
</wpt>
<wpt lat="50.190000" lon="-122.431667">
<magvar>341.4</magvar>
<name>GLACE</name>
<cmt>GLACE,BC,CA</cmt>
<type>REP-PT</type>
<extensions>
<navaid:name>GLACE</navaid:name>
<navaid:state>BC</navaid:state>
<navaid:country>CA</navaid:country>
<navaid:lastupdate>2008-08-12</navaid:lastupdate>
<navaid:magvar>-18.62</navaid:magvar>
</extensions>
</wpt>
<wpt lat="50.226667" lon="-121.500000">
<magvar>341.6</magvar>
<name>VIDRI</name>
<cmt>VIDRI,BC,CA</cmt>
<type>REP-PT</type>
<extensions>
<navaid:name>VIDRI</navaid:name>
<navaid:state>BC</navaid:state>
<navaid:country>CA</navaid:country>
<navaid:lastupdate>2008-08-12</navaid:lastupdate>
<navaid:magvar>-18.43</navaid:magvar>
</extensions>
</wpt>
<wpt lat="49.941667" lon="-120.961667">
<magvar>341.8</magvar>
<name>MERYT</name>
<cmt>MERYT,BC,CA</cmt>
<type>REP-PT</type>
<extensions>
<navaid:name>MERYT</navaid:name>
<navaid:state>BC</navaid:state>
<navaid:country>CA</navaid:country>
<navaid:lastupdate>2008-08-12</navaid:lastupdate>
<navaid:magvar>-18.2</navaid:magvar>
</extensions>
</wpt>
<wpt lat="50.007222" lon="-123.615278">
<magvar>341.3</magvar>
<name>ELIDI</name>
<cmt>ELIDI(TOU 359/110),BC,CA</cmt>
<type>REP-PT</type>
<extensions>
<navaid:name>ELIDI(TOU 359/110)</navaid:name>
<navaid:state>BC</navaid:state>
<navaid:country>CA</navaid:country>
<navaid:lastupdate>2008-08-12</navaid:lastupdate>
<navaid:magvar>-18.78</navaid:magvar>
</extensions>
</wpt>
<wpt lat="50.008333" lon="-123.025000">
<magvar>341.4</magvar>
<name>GABAL</name>
<cmt>GABAL,BC,CA</cmt>
<type>REP-PT</type>
<extensions>
<navaid:name>GABAL</navaid:name>
<navaid:state>BC</navaid:state>
<navaid:country>CA</navaid:country>
<navaid:lastupdate>2008-08-12</navaid:lastupdate>
<navaid:magvar>-18.67</navaid:magvar>
</extensions>
</wpt>
<wpt lat="49.945278" lon="-120.964444">
<magvar>341.9</magvar>
<name>GABIN</name>
<cmt>GABIN,BC,CA</cmt>
<type>REP-PT</type>
<extensions>
<navaid:name>GABIN</navaid:name>
<navaid:state>BC</navaid:state>
<navaid:country>CA</navaid:country>
<navaid:lastupdate>2008-08-12</navaid:lastupdate>
<navaid:magvar>-18.18</navaid:magvar>
</extensions>
</wpt>
<wpt lat="49.905833" lon="-122.465833">
<magvar>341.5</magvar>
<name>GARRE</name>
<cmt>GARRE,BC,CA</cmt>
<type>REP-PT</type>
<extensions>
<navaid:name>GARRE</navaid:name>
<navaid:state>BC</navaid:state>
<navaid:country>CA</navaid:country>
<navaid:lastupdate>2008-08-12</navaid:lastupdate>
<navaid:magvar>-18.5</navaid:magvar>
</extensions>
</wpt>
<wpt lat="49.228667" lon="-123.543500">
<magvar>341.7</magvar>
<name>JORJA</name>
<cmt>JORJA,BC,CA</cmt>
<type>REP-PT</type>
<extensions>
<navaid:name>JORJA</navaid:name>
<navaid:state>BC</navaid:state>
<navaid:country>CA</navaid:country>
<navaid:lastupdate>2008-08-12</navaid:lastupdate>
<navaid:magvar>-18.38</navaid:magvar>
</extensions>
</wpt>
<wpt lat="49.280000" lon="-122.651667">
<magvar>341.7</magvar>
<name>LANNE</name>
<cmt>LANNE,BC,CA</cmt>
<type>REP-PT</type>
<extensions>
<navaid:name>LANNE</navaid:name>
<navaid:state>BC</navaid:state>
<navaid:country>CA</navaid:country>
<navaid:lastupdate>2008-08-12</navaid:lastupdate>
<navaid:magvar>-18.33</navaid:magvar>
</extensions>
</wpt>
<wpt lat="49.286667" lon="-123.285000">
<magvar>341.6</magvar>
<name>VARSY</name>
<cmt>VARSY,BC,CA</cmt>
<type>REP-PT</type>
<extensions>
<navaid:name>VARSY</navaid:name>
<navaid:state>BC</navaid:state>
<navaid:country>CA</navaid:country>
<navaid:lastupdate>2008-08-12</navaid:lastupdate>
<navaid:magvar>-18.45</navaid:magvar>
</extensions>
</wpt>
<wpt lat="49.470000" lon="-122.173333">
<magvar>341.7</magvar>
<name>VITEV</name>
<cmt>VITEV (YVR R37.0/D45.0),BC,CA</cmt>
<type>REP-PT</type>
<extensions>
<navaid:name>VITEV (YVR R37.0/D45.0)</navaid:name>
<navaid:state>BC</navaid:state>
<navaid:country>CA</navaid:country>
<navaid:lastupdate>2008-08-12</navaid:lastupdate>
<navaid:magvar>-18.3</navaid:magvar>
</extensions>
</wpt>
<wpt lat="49.017500" lon="-118.423611">
<magvar>342.9</magvar>
<name>2J</name>
<cmt>GRAND FORKS,BC,CA, Frequency:250</cmt>
<type>NDB/DME</type>
<extensions>
<navaid:name>GRAND FORKS</navaid:name>
<navaid:state>BC</navaid:state>
<navaid:country>CA</navaid:country>
<navaid:lastupdate>2008-08-12</navaid:lastupdate>
<navaid:frequencies>
<navaid:frequency type="NAV" frequency="250" name="NAVAID"/>
</navaid:frequencies>
<navaid:magvar>-17.19</navaid:magvar>
</extensions>
</wpt>
<wpt lat="50.558333" lon="-119.611667">
<magvar>342.0</magvar>
<name>SAVOV</name>
<cmt>SAVOV,BC,CA</cmt>
<type>REP-PT</type>
<extensions>
<navaid:name>SAVOV</navaid:name>
<navaid:state>BC</navaid:state>
<navaid:country>CA</navaid:country>
<navaid:lastupdate>2008-08-12</navaid:lastupdate>
<navaid:magvar>-18.07</navaid:magvar>
</extensions>
</wpt>
<wpt lat="50.581000" lon="-119.215500">
<magvar>342.1</magvar>
<name>SUVAK</name>
<cmt>SUVAK,BC,CA</cmt>
<type>REP-PT</type>
<extensions>
<navaid:name>SUVAK</navaid:name>
<navaid:state>BC</navaid:state>
<navaid:country>CA</navaid:country>
<navaid:lastupdate>2008-08-12</navaid:lastupdate>
<navaid:magvar>-17.97</navaid:magvar>
</extensions>
</wpt>
<wpt lat="50.355000" lon="-119.849444">
<magvar>342.0</magvar>
<name>STUMM</name>
<cmt>STUMM,BC,CA</cmt>
<type>REP-PT</type>
<extensions>
<navaid:name>STUMM</navaid:name>
<navaid:state>BC</navaid:state>
<navaid:country>CA</navaid:country>
<navaid:lastupdate>2008-08-12</navaid:lastupdate>
<navaid:magvar>-18.04</navaid:magvar>
</extensions>
</wpt>
<wpt lat="50.350000" lon="-119.260000">
<magvar>342.1</magvar>
<name>6K</name>
<cmt>VERNON BC,BC,CA, Frequency:302</cmt>
<type>NDB</type>
<extensions>
<navaid:name>VERNON BC</navaid:name>
<navaid:state>BC</navaid:state>
<navaid:country>CA</navaid:country>
<navaid:lastupdate>2008-08-12</navaid:lastupdate>
<navaid:frequencies>
<navaid:frequency type="NAV" frequency="302" name="NAVAID"/>
</navaid:frequencies>
<navaid:magvar>-17.9</navaid:magvar>
</extensions>
</wpt>
<wpt lat="50.270556" lon="-120.077222">
<magvar>342.0</magvar>
<name>BULIE</name>
<cmt>BULIE,BC,CA</cmt>
<type>REP-PT</type>
<extensions>
<navaid:name>BULIE</navaid:name>
<navaid:state>BC</navaid:state>
<navaid:country>CA</navaid:country>
<navaid:lastupdate>2008-08-12</navaid:lastupdate>
<navaid:magvar>-18.09</navaid:magvar>
</extensions>
</wpt>
<wpt lat="50.481667" lon="-120.341667">
<magvar>341.8</magvar>
<name>CHAPT</name>
<cmt>CHAPT,BC,CA</cmt>
<type>REP-PT</type>
<extensions>
<navaid:name>CHAPT</navaid:name>
<navaid:state>BC</navaid:state>
<navaid:country>CA</navaid:country>
<navaid:lastupdate>2008-08-12</navaid:lastupdate>
<navaid:magvar>-18.24</navaid:magvar>
</extensions>
</wpt>
<wpt lat="50.144722" lon="-120.416889">
<magvar>341.9</magvar>
<name>DURAK</name>
<cmt>DURAK,BC,CA</cmt>
<type>REP-PT</type>
<extensions>
<navaid:name>DURAK</navaid:name>
<navaid:state>BC</navaid:state>
<navaid:country>CA</navaid:country>
<navaid:lastupdate>2008-08-12</navaid:lastupdate>
<navaid:magvar>-18.12</navaid:magvar>
</extensions>
</wpt>
<wpt lat="50.573333" lon="-119.700000">
<magvar>341.9</magvar>
<name>FELKO</name>
<cmt>FELKO,BC,CA</cmt>
<type>REP-PT</type>
<extensions>
<navaid:name>FELKO</navaid:name>
<navaid:state>BC</navaid:state>
<navaid:country>CA</navaid:country>
<navaid:lastupdate>2008-08-12</navaid:lastupdate>
<navaid:magvar>-18.1</navaid:magvar>
</extensions>
</wpt>
<wpt lat="50.452783" lon="-120.534033">
<magvar>341.8</magvar>
<name>GUCHY</name>
<cmt>GUCHY,BC,CA</cmt>
<type>REP-PT</type>
<extensions>
<navaid:name>GUCHY</navaid:name>
<navaid:state>BC</navaid:state>
<navaid:country>CA</navaid:country>
<navaid:lastupdate>2008-08-12</navaid:lastupdate>
<navaid:magvar>-18.26</navaid:magvar>
</extensions>
</wpt>
<wpt lat="50.355000" lon="-119.305000">
<magvar>342.1</magvar>
<name>HUMEK</name>
<cmt>HUMEK,BC,CA</cmt>
<type>REP-PT</type>
<extensions>
<navaid:name>HUMEK</navaid:name>
<navaid:state>BC</navaid:state>
<navaid:country>CA</navaid:country>
<navaid:lastupdate>2008-08-12</navaid:lastupdate>
<navaid:magvar>-17.91</navaid:magvar>
</extensions>
</wpt>
<wpt lat="50.169444" lon="-120.352222">
<magvar>341.9</magvar>
<name>ICOLA</name>
<cmt>ICOLA,BC,CA</cmt>
<type>REP-PT</type>
<extensions>
<navaid:name>ICOLA</navaid:name>
<navaid:state>BC</navaid:state>
<navaid:country>CA</navaid:country>
<navaid:lastupdate>2008-08-12</navaid:lastupdate>
<navaid:magvar>-18.11</navaid:magvar>
</extensions>
</wpt>
<wpt lat="50.253500" lon="-119.419333">
<magvar>342.1</magvar>
<name>WTMAN</name>
<cmt>WTMAN,BC,CA</cmt>
<type>REP-PT</type>
<extensions>
<navaid:name>WTMAN</navaid:name>
<navaid:state>BC</navaid:state>
<navaid:country>CA</navaid:country>
<navaid:lastupdate>2008-08-12</navaid:lastupdate>
<navaid:magvar>-17.91</navaid:magvar>
</extensions>
</wpt>
<wpt lat="49.741667" lon="-120.363333">
<magvar>342.1</magvar>
<name>WHORT</name>
<cmt>WHORT,BC,CA</cmt>
<type>REP-PT</type>
<extensions>
<navaid:name>WHORT</navaid:name>
<navaid:state>BC</navaid:state>
<navaid:country>CA</navaid:country>
<navaid:lastupdate>2008-08-12</navaid:lastupdate>
<navaid:magvar>-17.98</navaid:magvar>
</extensions>
</wpt>
<wpt lat="49.938333" lon="-119.039444">
<magvar>342.4</magvar>
<name>MOORR</name>
<cmt>MOORR,BC,CA</cmt>
<type>REP-PT</type>
<extensions>
<navaid:name>MOORR</navaid:name>
<navaid:state>BC</navaid:state>
<navaid:country>CA</navaid:country>
<navaid:lastupdate>2008-08-12</navaid:lastupdate>
<navaid:magvar>-17.67</navaid:magvar>
</extensions>
</wpt>
<wpt lat="50.049999" lon="-118.785000">
<magvar>342.4</magvar>
<name>STAGG</name>
<cmt>STAGG,BC,CA</cmt>
<type>REP-PT</type>
<extensions>
<navaid:name>STAGG</navaid:name>
<navaid:state>BC</navaid:state>
<navaid:country>CA</navaid:country>
<navaid:lastupdate>2008-08-12</navaid:lastupdate>
<navaid:magvar>-17.65</navaid:magvar>
</extensions>
</wpt>
<wpt lat="49.840000" lon="-118.740000">
<magvar>342.5</magvar>
<name>TENYA</name>
<cmt>TENYA,BC,CA</cmt>
<type>REP-PT</type>
<extensions>
<navaid:name>TENYA</navaid:name>
<navaid:state>BC</navaid:state>
<navaid:country>CA</navaid:country>
<navaid:lastupdate>2008-08-12</navaid:lastupdate>
<navaid:magvar>-17.57</navaid:magvar>
</extensions>
</wpt>
<wpt lat="49.990000" lon="-120.356667">
<magvar>342.0</magvar>
<name>AMBRO</name>
<cmt>AMBRO,BC,CA</cmt>
<type>REP-PT</type>
<extensions>
<navaid:name>AMBRO</navaid:name>
<navaid:state>BC</navaid:state>
<navaid:country>CA</navaid:country>
<navaid:lastupdate>2008-08-12</navaid:lastupdate>
<navaid:magvar>-18.06</navaid:magvar>
</extensions>
</wpt>
<wpt lat="50.030000" lon="-119.026667">
<magvar>342.3</magvar>
<name>BALOR</name>
<cmt>BALOR,BC,CA</cmt>
<type>REP-PT</type>
<extensions>
<navaid:name>BALOR</navaid:name>
<navaid:state>BC</navaid:state>
<navaid:country>CA</navaid:country>
<navaid:lastupdate>2008-08-12</navaid:lastupdate>
<navaid:magvar>-17.72</navaid:magvar>
</extensions>
</wpt>
<wpt lat="49.965833" lon="-118.271667">
<magvar>342.6</magvar>
<name>WHATS</name>
<cmt>WHATS,BC,CA</cmt>
<type>REP-PT</type>
<extensions>
<navaid:name>WHATS</navaid:name>
<navaid:state>BC</navaid:state>
<navaid:country>CA</navaid:country>
<navaid:lastupdate>2008-08-12</navaid:lastupdate>
<navaid:magvar>-17.45</navaid:magvar>
</extensions>
</wpt>
<wpt lat="49.418333" lon="-119.585000">
<magvar>342.4</magvar>
<name>SKAHA</name>
<cmt>SKAHA,BC,CA</cmt>
<type>REP-PT</type>
<extensions>
<navaid:name>SKAHA</navaid:name>
<navaid:state>BC</navaid:state>
<navaid:country>CA</navaid:country>
<navaid:lastupdate>2008-08-12</navaid:lastupdate>
<navaid:magvar>-17.66</navaid:magvar>
</extensions>
</wpt>
<wpt lat="49.452500" lon="-119.603611">
<magvar>342.4</magvar>
<name>XYF</name>
<cmt>PENTICTON,BC,CA</cmt>
<type>DME</type>
<extensions>
<navaid:name>PENTICTON</navaid:name>
<navaid:state>BC</navaid:state>
<navaid:country>CA</navaid:country>
<navaid:lastupdate>2008-08-12</navaid:lastupdate>
<navaid:magvar>-17.68</navaid:magvar>
</extensions>
</wpt>
<wpt lat="49.448333" lon="-119.093333">
<magvar>342.5</magvar>
<name>GOATE</name>
<cmt>GOATE,BC,CA</cmt>
<type>REP-PT</type>
<extensions>
<navaid:name>GOATE</navaid:name>
<navaid:state>BC</navaid:state>
<navaid:country>CA</navaid:country>
<navaid:lastupdate>2008-08-12</navaid:lastupdate>
<navaid:magvar>-17.53</navaid:magvar>
</extensions>
</wpt>
<wpt lat="49.475000" lon="-119.106667">
<magvar>342.5</magvar>
<name>JULLY</name>
<cmt>JULLY,BC,CA</cmt>
<type>REP-PT</type>
<extensions>
<navaid:name>JULLY</navaid:name>
<navaid:state>BC</navaid:state>
<navaid:country>CA</navaid:country>
<navaid:lastupdate>2008-08-12</navaid:lastupdate>
<navaid:magvar>-17.55</navaid:magvar>
</extensions>
</wpt>
<wpt lat="49.816389" lon="-123.732222">
<magvar>341.3</magvar>
<name>KEINN</name>
<cmt>KEINN,BC,CA</cmt>
<type>REP-PT</type>
<extensions>
<navaid:name>KEINN</navaid:name>
<navaid:state>BC</navaid:state>
<navaid:country>CA</navaid:country>
<navaid:lastupdate>2008-08-12</navaid:lastupdate>
<navaid:magvar>-18.73</navaid:magvar>
</extensions>
</wpt>
<wpt lat="49.243333" lon="-122.536667">
<magvar>341.8</magvar>
<name>MAIPL</name>
<cmt>MAIPL,BC,CA</cmt>
<type>REP-PT</type>
<extensions>
<navaid:name>MAIPL</navaid:name>
<navaid:state>BC</navaid:state>
<navaid:country>CA</navaid:country>
<navaid:lastupdate>2008-08-12</navaid:lastupdate>
<navaid:magvar>-18.29</navaid:magvar>
</extensions>
</wpt>
<wpt lat="49.240000" lon="-122.901667">
<magvar>341.7</magvar>
<name>MILLS</name>
<cmt>MILLS,BC,CA</cmt>
<type>REP-PT</type>
<extensions>
<navaid:name>MILLS</navaid:name>
<navaid:state>BC</navaid:state>
<navaid:country>CA</navaid:country>
<navaid:lastupdate>2008-08-12</navaid:lastupdate>
<navaid:magvar>-18.36</navaid:magvar>
</extensions>
</wpt>
<wpt lat="49.363300" lon="-122.838261">
<magvar>341.7</magvar>
<name>MODDY</name>
<cmt>MODDY,BC,CA</cmt>
<type>REP-PT</type>
<extensions>
<navaid:name>MODDY</navaid:name>
<navaid:state>BC</navaid:state>
<navaid:country>CA</navaid:country>
<navaid:lastupdate>2008-08-12</navaid:lastupdate>
<navaid:magvar>-18.39</navaid:magvar>
</extensions>
</wpt>
<wpt lat="49.286667" lon="-122.546667">
<magvar>341.7</magvar>
<name>MOGUS</name>
<cmt>MOGUS,BC,CA</cmt>
<type>REP-PT</type>
<extensions>
<navaid:name>MOGUS</navaid:name>
<navaid:state>BC</navaid:state>
<navaid:country>CA</navaid:country>
<navaid:lastupdate>2008-08-12</navaid:lastupdate>
<navaid:magvar>-18.31</navaid:magvar>
</extensions>
</wpt>
<wpt lat="49.326667" lon="-123.608333">
<magvar>341.5</magvar>
<name>NUTBE</name>
<cmt>NUTBE,BC,CA</cmt>
<type>REP-PT</type>
<extensions>
<navaid:name>NUTBE</navaid:name>
<navaid:state>BC</navaid:state>
<navaid:country>CA</navaid:country>
<navaid:lastupdate>2008-08-12</navaid:lastupdate>
<navaid:magvar>-18.52</navaid:magvar>
</extensions>
</wpt>
<wpt lat="49.323333" lon="-122.543333">
<magvar>341.7</magvar>
<name>SHARD</name>
<cmt>SHARD,BC,CA</cmt>
<type>REP-PT</type>
<extensions>
<navaid:name>SHARD</navaid:name>
<navaid:state>BC</navaid:state>
<navaid:country>CA</navaid:country>
<navaid:lastupdate>2008-08-12</navaid:lastupdate>
<navaid:magvar>-18.32</navaid:magvar>
</extensions>
</wpt>
<wpt lat="49.401667" lon="-122.348333">
<magvar>341.7</magvar>
<name>STAVE</name>
<cmt>STAVE,BC,CA</cmt>
<type>REP-PT</type>
<extensions>
<navaid:name>STAVE</navaid:name>
<navaid:state>BC</navaid:state>
<navaid:country>CA</navaid:country>
<navaid:lastupdate>2008-08-12</navaid:lastupdate>
<navaid:magvar>-18.31</navaid:magvar>
</extensions>
</wpt>
<wpt lat="49.522500" lon="-122.045278">
<magvar>341.8</magvar>
<name>BOOTH</name>
<cmt>BOOTH (YVR R36.9/D50.9),BC,CA</cmt>
<type>REP-PT</type>
<extensions>
<navaid:name>BOOTH (YVR R36.9/D50.9)</navaid:name>
<navaid:state>BC</navaid:state>
<navaid:country>CA</navaid:country>
<navaid:lastupdate>2008-08-12</navaid:lastupdate>
<navaid:magvar>-18.27</navaid:magvar>
</extensions>
</wpt>
<wpt lat="49.469999" lon="-121.385000">
<magvar>341.9</magvar>
<name>CAUGA</name>
<cmt>CAUGA (YDC R257.0/D40.0),BC,CA</cmt>
<type>REP-PT</type>
<extensions>
<navaid:name>CAUGA (YDC R257.0/D40.0)</navaid:name>
<navaid:state>BC</navaid:state>
<navaid:country>CA</navaid:country>
<navaid:lastupdate>2008-08-12</navaid:lastupdate>
<navaid:magvar>-18.13</navaid:magvar>
</extensions>
</wpt>
<wpt lat="49.375000" lon="-123.380000">
<magvar>341.5</magvar>
<name>FASBO</name>
<cmt>FASBO,BC,CA</cmt>
<type>REP-PT</type>
<extensions>
<navaid:name>FASBO</navaid:name>
<navaid:state>BC</navaid:state>
<navaid:country>CA</navaid:country>
<navaid:lastupdate>2008-08-12</navaid:lastupdate>
<navaid:magvar>-18.5</navaid:magvar>
</extensions>
</wpt>
<wpt lat="49.485000" lon="-123.715000">
<magvar>341.4</magvar>
<name>GIBAC</name>
<cmt>GIBAC,BC,CA</cmt>
<type>REP-PT</type>
<extensions>
<navaid:name>GIBAC</navaid:name>
<navaid:state>BC</navaid:state>
<navaid:country>CA</navaid:country>
<navaid:lastupdate>2008-08-12</navaid:lastupdate>
<navaid:magvar>-18.6</navaid:magvar>
</extensions>
</wpt>
<wpt lat="49.485000" lon="-122.816667">
<magvar>341.6</magvar>
<name>GOEFR</name>
<cmt>GOEFR,BC,CA</cmt>
<type>REP-PT</type>
<extensions>
<navaid:name>GOEFR</navaid:name>
<navaid:state>BC</navaid:state>
<navaid:country>CA</navaid:country>
<navaid:lastupdate>2008-08-12</navaid:lastupdate>
<navaid:magvar>-18.43</navaid:magvar>
</extensions>
</wpt>
<wpt lat="49.310000" lon="-123.470000">
<magvar>341.6</magvar>
<name>BAJOL</name>
<cmt>BAJOL,BC,CA</cmt>
<type>REP-PT</type>
<extensions>
<navaid:name>BAJOL</navaid:name>
<navaid:state>BC</navaid:state>
<navaid:country>CA</navaid:country>
<navaid:lastupdate>2008-08-12</navaid:lastupdate>
<navaid:magvar>-18.49</navaid:magvar>
</extensions>
</wpt>
<wpt lat="49.253333" lon="-123.006667">
<magvar>341.7</magvar>
<name>BASRA</name>
<cmt>BASRA,BC,CA</cmt>
<type>REP-PT</type>
<extensions>
<navaid:name>BASRA</navaid:name>
<navaid:state>BC</navaid:state>
<navaid:country>CA</navaid:country>
<navaid:lastupdate>2008-08-12</navaid:lastupdate>
<navaid:magvar>-18.39</navaid:magvar>
</extensions>
</wpt>
<wpt lat="49.336667" lon="-122.938333">
<magvar>341.6</magvar>
<name>DOLLR</name>
<cmt>DOLLR,BC,CA</cmt>
<type>REP-PT</type>
<extensions>
<navaid:name>DOLLR</navaid:name>
<navaid:state>BC</navaid:state>
<navaid:country>CA</navaid:country>
<navaid:lastupdate>2008-08-12</navaid:lastupdate>
<navaid:magvar>-18.4</navaid:magvar>
</extensions>
</wpt>
<wpt lat="49.225000" lon="-122.786667">
<magvar>341.7</magvar>
<name>FRASE</name>
<cmt>FRASE,BC,CA</cmt>
<type>REP-PT</type>
<extensions>
<navaid:name>FRASE</navaid:name>
<navaid:state>BC</navaid:state>
<navaid:country>CA</navaid:country>
<navaid:lastupdate>2008-08-12</navaid:lastupdate>
<navaid:magvar>-18.33</navaid:magvar>
</extensions>
</wpt>
<wpt lat="49.278333" lon="-122.048333">
<magvar>341.8</magvar>
<name>HARAS</name>
<cmt>HARAS,BC,CA</cmt>
<type>REP-PT</type>
<extensions>
<navaid:name>HARAS</navaid:name>
<navaid:state>BC</navaid:state>
<navaid:country>CA</navaid:country>
<navaid:lastupdate>2008-08-12</navaid:lastupdate>
<navaid:magvar>-18.2</navaid:magvar>
</extensions>
</wpt>
<wpt lat="48.850000" lon="-123.656667">
<magvar>341.7</magvar>
<name>DUNCN</name>
<cmt>DUNCN,BC,CA</cmt>
<type>REP-PT</type>
<extensions>
<navaid:name>DUNCN</navaid:name>
<navaid:state>BC</navaid:state>
<navaid:country>CA</navaid:country>
<navaid:lastupdate>2009-12-15</navaid:lastupdate>
<navaid:magvar>-18.36</navaid:magvar>
</extensions>
</wpt>
<wpt lat="48.890694" lon="-123.329322">
<magvar>341.7</magvar>
<name>LIANO</name>
<cmt>LIANO,BC,CA</cmt>
<type>REP-PT</type>
<extensions>
<navaid:name>LIANO</navaid:name>
<navaid:state>BC</navaid:state>
<navaid:country>CA</navaid:country>
<navaid:lastupdate>2009-12-15</navaid:lastupdate>
<navaid:magvar>-18.32</navaid:magvar>
</extensions>
</wpt>
<wpt lat="49.076667" lon="-122.700000">
<magvar>341.8</magvar>
<name>SAFOL</name>
<cmt>SAFOL,BC,CA</cmt>
<type>REP-PT</type>
<extensions>
<navaid:name>SAFOL</navaid:name>
<navaid:state>BC</navaid:state>
<navaid:country>CA</navaid:country>
<navaid:lastupdate>2009-12-15</navaid:lastupdate>
<navaid:magvar>-18.26</navaid:magvar>
</extensions>
</wpt>
<wpt lat="49.101667" lon="-123.495000">
<magvar>341.6</magvar>
<name>BRIOL</name>
<cmt>BRIOL,BC,CA</cmt>
<type>REP-PT</type>
<extensions>
<navaid:name>BRIOL</navaid:name>
<navaid:state>BC</navaid:state>
<navaid:country>CA</navaid:country>
<navaid:lastupdate>2009-12-15</navaid:lastupdate>
<navaid:magvar>-18.42</navaid:magvar>
</extensions>
</wpt>
<wpt lat="49.075000" lon="-123.491667">
<magvar>341.6</magvar>
<name>FAXTO</name>
<cmt>FAXTO,BC,CA</cmt>
<type>REP-PT</type>
<extensions>
<navaid:name>FAXTO</navaid:name>
<navaid:state>BC</navaid:state>
<navaid:country>CA</navaid:country>
<navaid:lastupdate>2009-12-15</navaid:lastupdate>
<navaid:magvar>-18.41</navaid:magvar>
</extensions>
</wpt>
<wpt lat="49.208333" lon="-122.680000">
<magvar>341.7</magvar>
<name>OBTOT</name>
<cmt>OBTOT,BC,CA</cmt>
<type>REP-PT</type>
<extensions>
<navaid:name>OBTOT</navaid:name>
<navaid:state>BC</navaid:state>
<navaid:country>CA</navaid:country>
<navaid:lastupdate>2009-12-15</navaid:lastupdate>
<navaid:magvar>-18.31</navaid:magvar>
</extensions>
</wpt>
<wpt lat="49.201986" lon="-123.164006">
<magvar>341.6</magvar>
<name>IRD</name>
<cmt>VANCOUVER,BC,CA</cmt>
<type>DME</type>
<extensions>
<navaid:name>VANCOUVER</navaid:name>
<navaid:state>BC</navaid:state>
<navaid:country>CA</navaid:country>
<navaid:lastupdate>2009-12-15</navaid:lastupdate>
<navaid:magvar>-18.4</navaid:magvar>
</extensions>
</wpt>
<wpt lat="49.216667" lon="-122.715000">
<magvar>341.7</magvar>
<name>YPK</name>
<cmt>PITT MEADOWS BC,BC,CA, Frequency:112.40</cmt>
<type>VOR</type>
<extensions>
<navaid:name>PITT MEADOWS BC</navaid:name>
<navaid:state>BC</navaid:state>
<navaid:country>CA</navaid:country>
<navaid:lastupdate>2009-12-15</navaid:lastupdate>
<navaid:frequencies>
<navaid:frequency type="NAV" frequency="112.40" name="NAVAID"/>
</navaid:frequencies>
<navaid:magvar>-18.32</navaid:magvar>
</extensions>
</wpt>
<wpt lat="49.155000" lon="-122.770000">
<magvar>341.7</magvar>
<name>NEWTN</name>
<cmt>NEWTN,BC,CA</cmt>
<type>REP-PT</type>
<extensions>
<navaid:name>NEWTN</navaid:name>
<navaid:state>BC</navaid:state>
<navaid:country>CA</navaid:country>
<navaid:lastupdate>2009-12-15</navaid:lastupdate>
<navaid:magvar>-18.31</navaid:magvar>
</extensions>
</wpt>
<wpt lat="49.142000" lon="-122.791333">
<magvar>341.7</magvar>
<name>BOGGI</name>
<cmt>BOGGI,BC,CA</cmt>
<type>REP-PT</type>
<extensions>
<navaid:name>BOGGI</navaid:name>
<navaid:state>BC</navaid:state>
<navaid:country>CA</navaid:country>
<navaid:lastupdate>2009-12-15</navaid:lastupdate>
<navaid:magvar>-18.31</navaid:magvar>
</extensions>
</wpt>
<wpt lat="49.138333" lon="-123.495000">
<magvar>341.6</magvar>
<name>HADER</name>
<cmt>HADER,BC,CA</cmt>
<type>REP-PT</type>
<extensions>
<navaid:name>HADER</navaid:name>
<navaid:state>BC</navaid:state>
<navaid:country>CA</navaid:country>
<navaid:lastupdate>2009-12-15</navaid:lastupdate>
<navaid:magvar>-18.44</navaid:magvar>
</extensions>
</wpt>
<wpt lat="49.196667" lon="-123.199722">
<magvar>341.6</magvar>
<name>IMK</name>
<cmt>VANCOUVER,BC,CA</cmt>
<type>DME</type>
<extensions>
<navaid:name>VANCOUVER</navaid:name>
<navaid:state>BC</navaid:state>
<navaid:country>CA</navaid:country>
<navaid:lastupdate>2009-12-15</navaid:lastupdate>
<navaid:magvar>-18.4</navaid:magvar>
</extensions>
</wpt>
<wpt lat="49.188056" lon="-123.201667">
<magvar>341.6</magvar>
<name>IVR</name>
<cmt>VANCOUVER,BC,CA</cmt>
<type>DME</type>
<extensions>
<navaid:name>VANCOUVER</navaid:name>
<navaid:state>BC</navaid:state>
<navaid:country>CA</navaid:country>
<navaid:lastupdate>2009-12-15</navaid:lastupdate>
<navaid:magvar>-18.4</navaid:magvar>
</extensions>
</wpt>
<wpt lat="49.150000" lon="-123.333889">
<magvar>341.6</magvar>
<name>CANRY</name>
<cmt>CANRY,BC,CA</cmt>
<type>REP-PT</type>
<extensions>
<navaid:name>CANRY</navaid:name>
<navaid:state>BC</navaid:state>
<navaid:country>CA</navaid:country>
<navaid:lastupdate>2009-12-15</navaid:lastupdate>
<navaid:magvar>-18.41</navaid:magvar>
</extensions>
</wpt>
<wpt lat="49.191667" lon="-122.530000">
<magvar>341.8</magvar>
<name>FERRY</name>
<cmt>FERRY,BC,CA</cmt>
<type>REP-PT</type>
<extensions>
<navaid:name>FERRY</navaid:name>
<navaid:state>BC</navaid:state>
<navaid:country>CA</navaid:country>
<navaid:lastupdate>2009-12-15</navaid:lastupdate>
<navaid:magvar>-18.27</navaid:magvar>
</extensions>
</wpt>
<wpt lat="55.440000" lon="-122.268333">
<magvar>339.3</magvar>
<name>SPARD</name>
<cmt>SPARD,BC,CA</cmt>
<type>REP-PT</type>
<extensions>
<navaid:name>SPARD</navaid:name>
<navaid:state>BC</navaid:state>
<navaid:country>CA</navaid:country>
<navaid:lastupdate>2009-12-15</navaid:lastupdate>
<navaid:magvar>-20.74</navaid:magvar>
</extensions>
</wpt>
<wpt lat="54.716667" lon="-121.420000">
<magvar>339.8</magvar>
<name>STAHL</name>
<cmt>STAHL,BC,CA</cmt>
<type>REP-PT</type>
<extensions>
<navaid:name>STAHL</navaid:name>
<navaid:state>BC</navaid:state>
<navaid:country>CA</navaid:country>
<navaid:lastupdate>2009-12-15</navaid:lastupdate>
<navaid:magvar>-20.21</navaid:magvar>
</extensions>
</wpt>
<wpt lat="55.303611" lon="-123.136667">
<magvar>339.2</magvar>
<name>2U</name>
<cmt>MACKENZIE BC,BC,CA, Frequency:284</cmt>
<type>NDB/DME</type>
<extensions>
<navaid:name>MACKENZIE BC</navaid:name>
<navaid:state>BC</navaid:state>
<navaid:country>CA</navaid:country>
<navaid:lastupdate>2009-12-15</navaid:lastupdate>
<navaid:frequencies>
<navaid:frequency type="NAV" frequency="284" name="NAVAID"/>
</navaid:frequencies>
<navaid:magvar>-20.87</navaid:magvar>
</extensions>
</wpt>
<wpt lat="55.201667" lon="-120.815000">
<magvar>339.8</magvar>
<name>DARLI</name>
<cmt>DARLI,BC,CA</cmt>
<type>REP-PT</type>
<extensions>
<navaid:name>DARLI</navaid:name>
<navaid:state>BC</navaid:state>
<navaid:country>CA</navaid:country>
<navaid:lastupdate>2009-12-15</navaid:lastupdate>
<navaid:magvar>-20.27</navaid:magvar>
</extensions>
</wpt>
<wpt lat="55.293611" lon="-122.498333">
<magvar>339.3</magvar>
<name>FREND</name>
<cmt>FREND,BC,CA</cmt>
<type>REP-PT</type>
<extensions>
<navaid:name>FREND</navaid:name>
<navaid:state>BC</navaid:state>
<navaid:country>CA</navaid:country>
<navaid:lastupdate>2009-12-15</navaid:lastupdate>
<navaid:magvar>-20.7</navaid:magvar>
</extensions>
</wpt>
<wpt lat="55.213333" lon="-120.766667">
<magvar>339.8</magvar>
<name>KISKK</name>
<cmt>KISKK,BC,CA</cmt>
<type>REP-PT</type>
<extensions>
<navaid:name>KISKK</navaid:name>
<navaid:state>BC</navaid:state>
<navaid:country>CA</navaid:country>
<navaid:lastupdate>2009-12-15</navaid:lastupdate>
<navaid:magvar>-20.26</navaid:magvar>
</extensions>
</wpt>
<wpt lat="55.026111" lon="-120.936111">
<magvar>339.8</magvar>
<name>N9</name>
<cmt>TUMBLER,BC,CA, Frequency:346</cmt>
<type>NDB</type>
<extensions>
<navaid:name>TUMBLER</navaid:name>
<navaid:state>BC</navaid:state>
<navaid:country>CA</navaid:country>
<navaid:lastupdate>2009-12-15</navaid:lastupdate>
<navaid:frequencies>
<navaid:frequency type="NAV" frequency="346" name="NAVAID"/>
</navaid:frequencies>
<navaid:magvar>-20.22</navaid:magvar>
</extensions>
</wpt>
<wpt lat="54.643333" lon="-122.478333">
<magvar>339.6</magvar>
<name>DAVII</name>
<cmt>DAVII,BC,CA</cmt>
<type>REP-PT</type>
<extensions>
<navaid:name>DAVII</navaid:name>
<navaid:state>BC</navaid:state>
<navaid:country>CA</navaid:country>
<navaid:lastupdate>2009-12-15</navaid:lastupdate>
<navaid:magvar>-20.43</navaid:magvar>
</extensions>
</wpt>
<wpt lat="54.544589" lon="-120.774072">
<magvar>340.1</magvar>
<name>ELKIE</name>
<cmt>ELKIE (BC),BC,CA</cmt>
<type>REP-PT</type>
<extensions>
<navaid:name>ELKIE (BC)</navaid:name>
<navaid:state>BC</navaid:state>
<navaid:country>CA</navaid:country>
<navaid:lastupdate>2009-12-15</navaid:lastupdate>
<navaid:magvar>-19.97</navaid:magvar>
</extensions>
</wpt>
<wpt lat="54.825000" lon="-120.015000">
<magvar>340.2</magvar>
<name>HIDIN</name>
<cmt>HIDIN,BC,CA</cmt>
<type>REP-PT</type>
<extensions>
<navaid:name>HIDIN</navaid:name>
<navaid:state>BC</navaid:state>
<navaid:country>CA</navaid:country>
<navaid:lastupdate>2009-12-15</navaid:lastupdate>
<navaid:magvar>-19.87</navaid:magvar>
</extensions>
</wpt>
<wpt lat="53.440000" lon="-122.551667">
<magvar>340.2</magvar>
<name>CHUBB</name>
<cmt>CHUBB,BC,CA</cmt>
<type>REP-PT</type>
<extensions>
<navaid:name>CHUBB</navaid:name>
<navaid:state>BC</navaid:state>
<navaid:country>CA</navaid:country>
<navaid:lastupdate>2009-12-15</navaid:lastupdate>
<navaid:magvar>-19.8</navaid:magvar>
</extensions>
</wpt>
<wpt lat="54.241667" lon="-121.570000">
<magvar>340.0</magvar>
<name>RAPID</name>
<cmt>RAPID,BC,CA</cmt>
<type>REP-PT</type>
<extensions>
<navaid:name>RAPID</navaid:name>
<navaid:state>BC</navaid:state>
<navaid:country>CA</navaid:country>
<navaid:lastupdate>2009-12-15</navaid:lastupdate>
<navaid:magvar>-20.04</navaid:magvar>
</extensions>
</wpt>
<wpt lat="54.363333" lon="-122.164722">
<magvar>339.8</magvar>
<name>ALIVE</name>
<cmt>ALIVE,BC,CA</cmt>
<type>REP-PT</type>
<extensions>
<navaid:name>ALIVE</navaid:name>
<navaid:state>BC</navaid:state>
<navaid:country>CA</navaid:country>
<navaid:lastupdate>2009-12-15</navaid:lastupdate>
<navaid:magvar>-20.24</navaid:magvar>
</extensions>
</wpt>
<wpt lat="54.270000" lon="-121.986667">
<magvar>339.9</magvar>
<name>FIGGI</name>
<cmt>FIGGI,BC,CA</cmt>
<type>REP-PT</type>
<extensions>
<navaid:name>FIGGI</navaid:name>
<navaid:state>BC</navaid:state>
<navaid:country>CA</navaid:country>
<navaid:lastupdate>2009-12-15</navaid:lastupdate>
<navaid:magvar>-20.16</navaid:magvar>
</extensions>
</wpt>
<wpt lat="54.163333" lon="-120.170000">
<magvar>340.4</magvar>
<name>HOWSE</name>
<cmt>HOWSE,BC,CA</cmt>
<type>REP-PT</type>
<extensions>
<navaid:name>HOWSE</navaid:name>
<navaid:state>BC</navaid:state>
<navaid:country>CA</navaid:country>
<navaid:lastupdate>2009-12-15</navaid:lastupdate>
<navaid:magvar>-19.64</navaid:magvar>
</extensions>
</wpt>
<wpt lat="53.856667" lon="-121.690000">
<magvar>340.1</magvar>
<name>HUTON</name>
<cmt>HUTON,BC,CA</cmt>
<type>REP-PT</type>
<extensions>
<navaid:name>HUTON</navaid:name>
<navaid:state>BC</navaid:state>
<navaid:country>CA</navaid:country>
<navaid:lastupdate>2009-12-15</navaid:lastupdate>
<navaid:magvar>-19.91</navaid:magvar>
</extensions>
</wpt>
<wpt lat="53.985333" lon="-123.064500">
<magvar>339.9</magvar>
<name>IKMUS</name>
<cmt>IKMUS,BC,CA</cmt>
<type>REP-PT</type>
<extensions>
<navaid:name>IKMUS</navaid:name>
<navaid:state>BC</navaid:state>
<navaid:country>CA</navaid:country>
<navaid:lastupdate>2009-12-15</navaid:lastupdate>
<navaid:magvar>-20.14</navaid:magvar>
</extensions>
</wpt>
<wpt lat="55.766667" lon="-121.748333">
<magvar>339.3</magvar>
<name>MOBRY</name>
<cmt>MOBRY,BC,CA</cmt>
<type>REP-PT</type>
<extensions>
<navaid:name>MOBRY</navaid:name>
<navaid:state>BC</navaid:state>
<navaid:country>CA</navaid:country>
<navaid:lastupdate>2009-12-15</navaid:lastupdate>
<navaid:magvar>-20.77</navaid:magvar>
</extensions>
</wpt>
<wpt lat="55.763333" lon="-120.001667">
<magvar>339.8</magvar>
<name>ROLLA</name>
<cmt>ROLLA,BC,CA</cmt>
<type>REP-PT</type>
<extensions>
<navaid:name>ROLLA</navaid:name>
<navaid:state>BC</navaid:state>
<navaid:country>CA</navaid:country>
<navaid:lastupdate>2009-12-15</navaid:lastupdate>
<navaid:magvar>-20.28</navaid:magvar>
</extensions>
</wpt>
<wpt lat="51.579000" lon="-117.216833">
<magvar>342.4</magvar>
<name>WASEN</name>
<cmt>WASEN,BC,CA</cmt>
<type>REP-PT</type>
<extensions>
<navaid:name>WASEN</navaid:name>
<navaid:state>BC</navaid:state>
<navaid:country>CA</navaid:country>
<navaid:lastupdate>2009-12-15</navaid:lastupdate>
<navaid:magvar>-17.68</navaid:magvar>
</extensions>
</wpt>
<wpt lat="51.001667" lon="-120.686667">
<magvar>341.5</magvar>
<name>AFINS</name>
<cmt>AFINS,BC,CA</cmt>
<type>REP-PT</type>
<extensions>
<navaid:name>AFINS</navaid:name>
<navaid:state>BC</navaid:state>
<navaid:country>CA</navaid:country>
<navaid:lastupdate>2009-12-15</navaid:lastupdate>
<navaid:magvar>-18.52</navaid:magvar>
</extensions>
</wpt>
<wpt lat="51.005000" lon="-120.705000">
<magvar>341.5</magvar>
<name>FLOON</name>
<cmt>FLOON,BC,CA</cmt>
<type>REP-PT</type>
<extensions>
<navaid:name>FLOON</navaid:name>
<navaid:state>BC</navaid:state>
<navaid:country>CA</navaid:country>
<navaid:lastupdate>2009-12-15</navaid:lastupdate>
<navaid:magvar>-18.52</navaid:magvar>
</extensions>
</wpt>
<wpt lat="50.900556" lon="-123.064722">
<magvar>341.1</magvar>
<name>HEIRE</name>
<cmt>HEIRE(YWL 180/87),BC,CA</cmt>
<type>REP-PT</type>
<extensions>
<navaid:name>HEIRE(YWL 180/87)</navaid:name>
<navaid:state>BC</navaid:state>
<navaid:country>CA</navaid:country>
<navaid:lastupdate>2009-12-15</navaid:lastupdate>
<navaid:magvar>-18.99</navaid:magvar>
</extensions>
</wpt>
<wpt lat="52.840000" lon="-121.996667">
<magvar>340.5</magvar>
<name>RUNNY</name>
<cmt>RUNNY,BC,CA</cmt>
<type>REP-PT</type>
<extensions>
<navaid:name>RUNNY</navaid:name>
<navaid:state>BC</navaid:state>
<navaid:country>CA</navaid:country>
<navaid:lastupdate>2009-12-15</navaid:lastupdate>
<navaid:magvar>-19.56</navaid:magvar>
</extensions>
</wpt>
<wpt lat="52.780000" lon="-123.196389">
<magvar>340.3</magvar>
<name>AIRIE</name>
<cmt>AIRIE,BC,CA</cmt>
<type>REP-PT</type>
<extensions>
<navaid:name>AIRIE</navaid:name>
<navaid:state>BC</navaid:state>
<navaid:country>CA</navaid:country>
<navaid:lastupdate>2009-12-15</navaid:lastupdate>
<navaid:magvar>-19.76</navaid:magvar>
</extensions>
</wpt>
<wpt lat="52.753333" lon="-121.655000">
<magvar>340.6</magvar>
<name>LIEKY</name>
<cmt>LIEKY,BC,CA</cmt>
<type>REP-PT</type>
<extensions>
<navaid:name>LIEKY</navaid:name>
<navaid:state>BC</navaid:state>
<navaid:country>CA</navaid:country>
<navaid:lastupdate>2009-12-15</navaid:lastupdate>
<navaid:magvar>-19.44</navaid:magvar>
</extensions>
</wpt>
<wpt lat="51.443306" lon="-121.212500">
<magvar>341.2</magvar>
<name>MIBTI</name>
<cmt>MIBTI,BC,CA</cmt>
<type>REP-PT</type>
<extensions>
<navaid:name>MIBTI</navaid:name>
<navaid:state>BC</navaid:state>
<navaid:country>CA</navaid:country>
<navaid:lastupdate>2009-12-15</navaid:lastupdate>
<navaid:magvar>-18.82</navaid:magvar>
</extensions>
</wpt>
<wpt lat="51.490081" lon="-121.748883">
<magvar>341.1</magvar>
<name>LORVO</name>
<cmt>LORVO,BC,CA</cmt>
<type>REP-PT</type>
<extensions>
<navaid:name>LORVO</navaid:name>
<navaid:state>BC</navaid:state>
<navaid:country>CA</navaid:country>
<navaid:lastupdate>2009-12-15</navaid:lastupdate>
<navaid:magvar>-18.96</navaid:magvar>
</extensions>
</wpt>
<wpt lat="51.511667" lon="-122.458333">
<magvar>340.9</magvar>
<name>RONCH</name>
<cmt>RONCH,BC,CA</cmt>
<type>REP-PT</type>
<extensions>
<navaid:name>RONCH</navaid:name>
<navaid:state>BC</navaid:state>
<navaid:country>CA</navaid:country>
<navaid:lastupdate>2009-12-15</navaid:lastupdate>
<navaid:magvar>-19.13</navaid:magvar>
</extensions>
</wpt>
<wpt lat="51.471667" lon="-122.270000">
<magvar>341.0</magvar>
<name>KANOO</name>
<cmt>KANOO,BC,CA</cmt>
<type>REP-PT</type>
<extensions>
<navaid:name>KANOO</navaid:name>
<navaid:state>BC</navaid:state>
<navaid:country>CA</navaid:country>
<navaid:lastupdate>2009-12-15</navaid:lastupdate>
<navaid:magvar>-19.07</navaid:magvar>
</extensions>
</wpt>
<wpt lat="53.055278" lon="-122.308056">
<magvar>340.3</magvar>
<name>LIDUL</name>
<cmt>LIDUL,BC,CA</cmt>
<type>REP-PT</type>
<extensions>
<navaid:name>LIDUL</navaid:name>
<navaid:state>BC</navaid:state>
<navaid:country>CA</navaid:country>
<navaid:lastupdate>2009-12-15</navaid:lastupdate>
<navaid:magvar>-19.71</navaid:magvar>
</extensions>
</wpt>
<wpt lat="52.960556" lon="-122.486111">
<magvar>340.3</magvar>
<name>YQZ</name>
<cmt>QUESNEL,BC,CA, Frequency:359</cmt>
<type>NDB</type>
<extensions>
<navaid:name>QUESNEL</navaid:name>
<navaid:state>BC</navaid:state>
<navaid:country>CA</navaid:country>
<navaid:lastupdate>2009-12-15</navaid:lastupdate>
<navaid:frequencies>
<navaid:frequency type="NAV" frequency="359" name="NAVAID"/>
</navaid:frequencies>
<navaid:magvar>-19.71</navaid:magvar>
</extensions>
</wpt>
<wpt lat="52.910000" lon="-122.283333">
<magvar>340.4</magvar>
<name>DRAGO</name>
<cmt>DRAGO,BC,CA</cmt>
<type>REP-PT</type>
<extensions>
<navaid:name>DRAGO</navaid:name>
<navaid:state>BC</navaid:state>
<navaid:country>CA</navaid:country>
<navaid:lastupdate>2009-12-15</navaid:lastupdate>
<navaid:magvar>-19.65</navaid:magvar>
</extensions>
</wpt>
<wpt lat="50.650000" lon="-118.925556">
<magvar>342.1</magvar>
<name>NY</name>
<cmt>ENDERBY,BC,CA, Frequency:350</cmt>
<type>NDB</type>
<extensions>
<navaid:name>ENDERBY</navaid:name>
<navaid:state>BC</navaid:state>
<navaid:country>CA</navaid:country>
<navaid:lastupdate>2009-12-15</navaid:lastupdate>
<navaid:frequencies>
<navaid:frequency type="NAV" frequency="350" name="NAVAID"/>
</navaid:frequencies>
<navaid:magvar>-17.9</navaid:magvar>
</extensions>
</wpt>
<wpt lat="50.686111" lon="-119.233333">
<magvar>342.0</magvar>
<name>V6</name>
<cmt>SALMON ARM,BC,CA, Frequency:208</cmt>
<type>NDB/DME</type>
<extensions>
<navaid:name>SALMON ARM</navaid:name>
<navaid:state>BC</navaid:state>
<navaid:country>CA</navaid:country>
<navaid:lastupdate>2009-12-15</navaid:lastupdate>
<navaid:frequencies>
<navaid:frequency type="NAV" frequency="208" name="NAVAID"/>
</navaid:frequencies>
<navaid:magvar>-18.01</navaid:magvar>
</extensions>
</wpt>
<wpt lat="50.706111" lon="-120.460278">
<magvar>341.7</magvar>
<name>XPP</name>
<cmt>KAMLOOPS,BC,CA</cmt>
<type>DME</type>
<extensions>
<navaid:name>KAMLOOPS</navaid:name>
<navaid:state>BC</navaid:state>
<navaid:country>CA</navaid:country>
<navaid:lastupdate>2009-12-15</navaid:lastupdate>
<navaid:magvar>-18.35</navaid:magvar>
</extensions>
</wpt>
<wpt lat="50.677778" lon="-118.938889">
<magvar>342.1</magvar>
<name>YNY</name>
<cmt>ENDERBY,BC,CA, Frequency:115.20</cmt>
<type>VORTAC</type>
<extensions>
<navaid:name>ENDERBY</navaid:name>
<navaid:state>BC</navaid:state>
<navaid:country>CA</navaid:country>
<navaid:lastupdate>2009-12-15</navaid:lastupdate>
<navaid:frequencies>
<navaid:frequency type="NAV" frequency="115.20" name="NAVAID"/>
</navaid:frequencies>
<navaid:magvar>-17.91</navaid:magvar>
</extensions>
</wpt>
<wpt lat="50.683056" lon="-119.672500">
<magvar>341.9</magvar>
<name>CHACE</name>
<cmt>CHACE,BC,CA</cmt>
<type>REP-PT</type>
<extensions>
<navaid:name>CHACE</navaid:name>
<navaid:state>BC</navaid:state>
<navaid:country>CA</navaid:country>
<navaid:lastupdate>2009-12-15</navaid:lastupdate>
<navaid:magvar>-18.13</navaid:magvar>
</extensions>
</wpt>
<wpt lat="50.700000" lon="-122.770000">
<magvar>341.2</magvar>
<name>WIGHT</name>
<cmt>WIGHT,BC,CA</cmt>
<type>REP-PT</type>
<extensions>
<navaid:name>WIGHT</navaid:name>
<navaid:state>BC</navaid:state>
<navaid:country>CA</navaid:country>
<navaid:lastupdate>2009-12-15</navaid:lastupdate>
<navaid:magvar>-18.88</navaid:magvar>
</extensions>
</wpt>
<wpt lat="51.042833" lon="-118.255333">
<magvar>342.2</magvar>
<name>SWALE</name>
<cmt>SWALE,BC,CA</cmt>
<type>REP-PT</type>
<extensions>
<navaid:name>SWALE</navaid:name>
<navaid:state>BC</navaid:state>
<navaid:country>CA</navaid:country>
<navaid:lastupdate>2009-12-15</navaid:lastupdate>
<navaid:magvar>-17.84</navaid:magvar>
</extensions>
</wpt>
<wpt lat="52.405000" lon="-122.486667">
<magvar>340.6</magvar>
<name>SODAC</name>
<cmt>SODAC,BC,CA</cmt>
<type>REP-PT</type>
<extensions>
<navaid:name>SODAC</navaid:name>
<navaid:state>BC</navaid:state>
<navaid:country>CA</navaid:country>
<navaid:lastupdate>2009-12-15</navaid:lastupdate>
<navaid:magvar>-19.49</navaid:magvar>
</extensions>
</wpt>
<wpt lat="52.543056" lon="-122.748611">
<magvar>340.5</magvar>
<name>CASSL</name>
<cmt>CASSL,BC,CA</cmt>
<type>REP-PT</type>
<extensions>
<navaid:name>CASSL</navaid:name>
<navaid:state>BC</navaid:state>
<navaid:country>CA</navaid:country>
<navaid:lastupdate>2009-12-15</navaid:lastupdate>
<navaid:magvar>-19.58</navaid:magvar>
</extensions>
</wpt>
<wpt lat="51.690000" lon="-122.783333">
<magvar>340.8</magvar>
<name>WIGNO</name>
<cmt>WIGNO,BC,CA</cmt>
<type>REP-PT</type>
<extensions>
<navaid:name>WIGNO</navaid:name>
<navaid:state>BC</navaid:state>
<navaid:country>CA</navaid:country>
<navaid:lastupdate>2009-12-15</navaid:lastupdate>
<navaid:magvar>-19.26</navaid:magvar>
</extensions>
</wpt>
<wpt lat="51.743333" lon="-121.336944">
<magvar>341.1</magvar>
<name>J7</name>
<cmt>ONE HUNDERD EIGHT MILE,BC,CA, Frequency:285</cmt>
<type>NDB/DME</type>
<extensions>
<navaid:name>ONE HUNDERD EIGHT MILE</navaid:name>
<navaid:state>BC</navaid:state>
<navaid:country>CA</navaid:country>
<navaid:lastupdate>2009-12-15</navaid:lastupdate>
<navaid:frequencies>
<navaid:frequency type="NAV" frequency="285" name="NAVAID"/>
</navaid:frequencies>
<navaid:magvar>-18.96</navaid:magvar>
</extensions>
</wpt>
<wpt lat="55.341667" lon="-121.215000">
<magvar>339.6</magvar>
<name>MOOZE</name>
<cmt>MOOZE,BC,CA</cmt>
<type>REP-PT</type>
<extensions>
<navaid:name>MOOZE</navaid:name>
<navaid:state>BC</navaid:state>
<navaid:country>CA</navaid:country>
<navaid:lastupdate>2009-12-15</navaid:lastupdate>
<navaid:magvar>-20.44</navaid:magvar>
</extensions>
</wpt>
<wpt lat="55.102500" lon="-121.691944">
<magvar>339.6</magvar>
<name>RORTU</name>
<cmt>RORTU (YXJ R175.0/D76.0),BC,CA</cmt>
<type>REP-PT</type>
<extensions>
<navaid:name>RORTU (YXJ R175.0/D76.0)</navaid:name>
<navaid:state>BC</navaid:state>
<navaid:country>CA</navaid:country>
<navaid:lastupdate>2009-12-15</navaid:lastupdate>
<navaid:magvar>-20.45</navaid:magvar>
</extensions>
</wpt>
<wpt lat="56.183889" lon="-120.645000">
<magvar>339.4</magvar>
<name>ZXJ</name>
<cmt>TAYLOR,BC,CA, Frequency:246</cmt>
<type>NDB</type>
<extensions>
<navaid:name>TAYLOR</navaid:name>
<navaid:state>BC</navaid:state>
<navaid:country>CA</navaid:country>
<navaid:lastupdate>2009-12-15</navaid:lastupdate>
<navaid:frequencies>
<navaid:frequency type="NAV" frequency="246" name="NAVAID"/>
</navaid:frequencies>
<navaid:magvar>-20.66</navaid:magvar>
</extensions>
</wpt>
<wpt lat="55.727778" lon="-120.068333">
<magvar>339.8</magvar>
<name>DQ</name>
<cmt>DAWSON CREEK,BC,CA, Frequency:394</cmt>
<type>NDB</type>
<extensions>
<navaid:name>DAWSON CREEK</navaid:name>
<navaid:state>BC</navaid:state>
<navaid:country>CA</navaid:country>
<navaid:lastupdate>2009-12-15</navaid:lastupdate>
<navaid:frequencies>
<navaid:frequency type="NAV" frequency="394" name="NAVAID"/>
</navaid:frequencies>
<navaid:magvar>-20.29</navaid:magvar>
</extensions>
</wpt>
<wpt lat="55.694444" lon="-121.537500">
<magvar>339.4</magvar>
<name>F6</name>
<cmt>CHETWYND,BC,CA, Frequency:210</cmt>
<type>NDB</type>
<extensions>
<navaid:name>CHETWYND</navaid:name>
<navaid:state>BC</navaid:state>
<navaid:country>CA</navaid:country>
<navaid:lastupdate>2009-12-15</navaid:lastupdate>
<navaid:frequencies>
<navaid:frequency type="NAV" frequency="210" name="NAVAID"/>
</navaid:frequencies>
<navaid:magvar>-20.68</navaid:magvar>
</extensions>
</wpt>
<wpt lat="55.538611" lon="-121.403889">
<magvar>339.5</magvar>
<name>CAJEN</name>
<cmt>CAJEN (YXJ R175.0/D48.0),BC,CA</cmt>
<type>REP-PT</type>
<extensions>
<navaid:name>CAJEN (YXJ R175.0/D48.0)</navaid:name>
<navaid:state>BC</navaid:state>
<navaid:country>CA</navaid:country>
<navaid:lastupdate>2009-12-15</navaid:lastupdate>
<navaid:magvar>-20.58</navaid:magvar>
</extensions>
</wpt>
<wpt lat="55.725000" lon="-121.278611">
<magvar>339.4</magvar>
<name>EPINE</name>
<cmt>EPINE (YXJ R175.0/D36.0),BC,CA</cmt>
<type>REP-PT</type>
<extensions>
<navaid:name>EPINE (YXJ R175.0/D36.0)</navaid:name>
<navaid:state>BC</navaid:state>
<navaid:country>CA</navaid:country>
<navaid:lastupdate>2009-12-15</navaid:lastupdate>
<navaid:magvar>-20.63</navaid:magvar>
</extensions>
</wpt>
<wpt lat="50.908333" lon="-116.601667">
<magvar>342.8</magvar>
<name>WELLF</name>
<cmt>WELLF,BC,CA</cmt>
<type>REP-PT</type>
<extensions>
<navaid:name>WELLF</navaid:name>
<navaid:state>BC</navaid:state>
<navaid:country>CA</navaid:country>
<navaid:lastupdate>2009-12-15</navaid:lastupdate>
<navaid:magvar>-17.23</navaid:magvar>
</extensions>
</wpt>
<wpt lat="52.507778" lon="-130.434722">
<magvar>339.6</magvar>
<name>HECAT</name>
<cmt>HECAT,BC,CA</cmt>
<type>REP-PT</type>
<extensions>
<navaid:name>HECAT</navaid:name>
<navaid:state>BC</navaid:state>
<navaid:country>CA</navaid:country>
<navaid:lastupdate>2009-12-15</navaid:lastupdate>
<navaid:magvar>-20.47</navaid:magvar>
</extensions>
</wpt>
<wpt lat="53.350000" lon="-131.940000">
<magvar>339.2</magvar>
<name>ZZP</name>
<cmt>DEAD TREE,BC,CA, Frequency:248</cmt>
<type>NDB</type>
<extensions>
<navaid:name>DEAD TREE</navaid:name>
<navaid:state>BC</navaid:state>
<navaid:country>CA</navaid:country>
<navaid:lastupdate>2009-12-15</navaid:lastupdate>
<navaid:frequencies>
<navaid:frequency type="NAV" frequency="248" name="NAVAID"/>
</navaid:frequencies>
<navaid:magvar>-20.84</navaid:magvar>
</extensions>
</wpt>
<wpt lat="51.325000" lon="-131.296667">
<magvar>340.0</magvar>
<name>JIMMS</name>
<cmt>JIMMS,BC,CA</cmt>
<type>REP-PT</type>
<extensions>
<navaid:name>JIMMS</navaid:name>
<navaid:state>BC</navaid:state>
<navaid:country>CA</navaid:country>
<navaid:lastupdate>2009-12-15</navaid:lastupdate>
<navaid:magvar>-20.02</navaid:magvar>
</extensions>
</wpt>
<wpt lat="54.905556" lon="-129.918611">
<magvar>338.6</magvar>
<name>RIBIT</name>
<cmt>RIBIT,BC,CA</cmt>
<type>REP-PT</type>
<extensions>
<navaid:name>RIBIT</navaid:name>
<navaid:state>BC</navaid:state>
<navaid:country>CA</navaid:country>
<navaid:lastupdate>2009-12-15</navaid:lastupdate>
<navaid:magvar>-21.48</navaid:magvar>
</extensions>
</wpt>
<wpt lat="54.528333" lon="-130.780000">
<magvar>338.7</magvar>
<name>AGPAL</name>
<cmt>AGPAL,BC,CA</cmt>
<type>REP-PT</type>
<extensions>
<navaid:name>AGPAL</navaid:name>
<navaid:state>BC</navaid:state>
<navaid:country>CA</navaid:country>
<navaid:lastupdate>2009-12-15</navaid:lastupdate>
<navaid:magvar>-21.33</navaid:magvar>
</extensions>
</wpt>
<wpt lat="54.633129" lon="-130.968410">
<magvar>338.7</magvar>
<name>ANN01</name>
<cmt>ANN01 (ANN R113.0/D31.0),BC,CA</cmt>
<type>CNF</type>
<extensions>
<navaid:name>ANN01 (ANN R113.0/D31.0)</navaid:name>
<navaid:state>BC</navaid:state>
<navaid:country>CA</navaid:country>
<navaid:lastupdate>2009-12-15</navaid:lastupdate>
<navaid:magvar>-21.38</navaid:magvar>
</extensions>
</wpt>
<wpt lat="54.512501" lon="-131.649720">
<magvar>338.7</magvar>
<name>ANN02</name>
<cmt>ANN02 (ANN R157.0/D33.0),BC,CA</cmt>
<type>CNF</type>
<extensions>
<navaid:name>ANN02 (ANN R157.0/D33.0)</navaid:name>
<navaid:state>BC</navaid:state>
<navaid:country>CA</navaid:country>
<navaid:lastupdate>2009-12-15</navaid:lastupdate>
<navaid:magvar>-21.33</navaid:magvar>
</extensions>
</wpt>
<wpt lat="54.539603" lon="-131.066800">
<magvar>338.7</magvar>
<name>ZAYA5</name>
<cmt>ZAYA5,BC,CA</cmt>
<type>REP-PT</type>
<extensions>
<navaid:name>ZAYA5</navaid:name>
<navaid:state>BC</navaid:state>
<navaid:country>CA</navaid:country>
<navaid:lastupdate>2009-12-15</navaid:lastupdate>
<navaid:magvar>-21.34</navaid:magvar>
</extensions>
</wpt>
<wpt lat="59.649738" lon="-136.101930">
<magvar>336.7</magvar>
<name>HNS33</name>
<cmt>HNS33 (HNS R292.0/D33.0),BC,CA</cmt>
<type>CNF</type>
<extensions>
<navaid:name>HNS33 (HNS R292.0/D33.0)</navaid:name>
<navaid:state>BC</navaid:state>
<navaid:country>CA</navaid:country>
<navaid:lastupdate>2009-12-15</navaid:lastupdate>
<navaid:magvar>-23.37</navaid:magvar>
</extensions>
</wpt>
<wpt lat="49.264167" lon="-124.244167">
<magvar>341.5</magvar>
<name>NANOO</name>
<cmt>NANOO,BC,CA</cmt>
<type>REP-PT</type>
<extensions>
<navaid:name>NANOO</navaid:name>
<navaid:state>BC</navaid:state>
<navaid:country>CA</navaid:country>
<navaid:lastupdate>2009-12-15</navaid:lastupdate>
<navaid:magvar>-18.59</navaid:magvar>
</extensions>
</wpt>
<wpt lat="49.059167" lon="-125.158889">
<magvar>341.4</magvar>
<name>SIGTA</name>
<cmt>SIGTA,BC,CA</cmt>
<type>REP-PT</type>
<extensions>
<navaid:name>SIGTA</navaid:name>
<navaid:state>BC</navaid:state>
<navaid:country>CA</navaid:country>
<navaid:lastupdate>2009-12-15</navaid:lastupdate>
<navaid:magvar>-18.67</navaid:magvar>
</extensions>
</wpt>
<wpt lat="49.057222" lon="-123.871667">
<magvar>341.6</magvar>
<name>1CD</name>
<cmt>NANAIMO,BC,CA</cmt>
<type>DME</type>
<extensions>
<navaid:name>NANAIMO</navaid:name>
<navaid:state>BC</navaid:state>
<navaid:country>CA</navaid:country>
<navaid:lastupdate>2009-12-15</navaid:lastupdate>
<navaid:magvar>-18.47</navaid:magvar>
</extensions>
</wpt>
<wpt lat="49.071667" lon="-124.288333">
<magvar>341.5</magvar>
<name>ANVAP</name>
<cmt>ANVAP,BC,CA</cmt>
<type>REP-PT</type>
<extensions>
<navaid:name>ANVAP</navaid:name>
<navaid:state>BC</navaid:state>
<navaid:country>CA</navaid:country>
<navaid:lastupdate>2009-12-15</navaid:lastupdate>
<navaid:magvar>-18.55</navaid:magvar>
</extensions>
</wpt>
<wpt lat="49.072833" lon="-124.129861">
<magvar>341.5</magvar>
<name>ARRUE</name>
<cmt>ARRUE,BC,CA</cmt>
<type>REP-PT</type>
<extensions>
<navaid:name>ARRUE</navaid:name>
<navaid:state>BC</navaid:state>
<navaid:country>CA</navaid:country>
<navaid:lastupdate>2009-12-15</navaid:lastupdate>
<navaid:magvar>-18.52</navaid:magvar>
</extensions>
</wpt>
<wpt lat="49.073334" lon="-123.978333">
<magvar>341.6</magvar>
<name>CASDY</name>
<cmt>CASDY,BC,CA</cmt>
<type>REP-PT</type>
<extensions>
<navaid:name>CASDY</navaid:name>
<navaid:state>BC</navaid:state>
<navaid:country>CA</navaid:country>
<navaid:lastupdate>2009-12-15</navaid:lastupdate>
<navaid:magvar>-18.49</navaid:magvar>
</extensions>
</wpt>
<wpt lat="49.065000" lon="-124.796667">
<magvar>341.4</magvar>
<name>FOCHE</name>
<cmt>FOCHE (YVR R249.0/D65.0),BC,CA</cmt>
<type>REP-PT</type>
<extensions>
<navaid:name>FOCHE (YVR R249.0/D65.0)</navaid:name>
<navaid:state>BC</navaid:state>
<navaid:country>CA</navaid:country>
<navaid:lastupdate>2009-12-15</navaid:lastupdate>
<navaid:magvar>-18.62</navaid:magvar>
</extensions>
</wpt>
<wpt lat="49.194311" lon="-123.826578">
<magvar>341.5</magvar>
<name>ARMAC</name>
<cmt>ARMAC,BC,CA</cmt>
<type>REP-PT</type>
<extensions>
<navaid:name>ARMAC</navaid:name>
<navaid:state>BC</navaid:state>
<navaid:country>CA</navaid:country>
<navaid:lastupdate>2009-12-15</navaid:lastupdate>
<navaid:magvar>-18.51</navaid:magvar>
</extensions>
</wpt>
<wpt lat="49.356667" lon="-123.865000">
<magvar>341.5</magvar>
<name>TREEL</name>
<cmt>TREEL,BC,CA</cmt>
<type>REP-PT</type>
<extensions>
<navaid:name>TREEL</navaid:name>
<navaid:state>BC</navaid:state>
<navaid:country>CA</navaid:country>
<navaid:lastupdate>2009-12-15</navaid:lastupdate>
<navaid:magvar>-18.58</navaid:magvar>
</extensions>
</wpt>
<wpt lat="49.966667" lon="-123.851667">
<magvar>341.2</magvar>
<name>MUZON</name>
<cmt>MUZON,BC,CA</cmt>
<type>REP-PT</type>
<extensions>
<navaid:name>MUZON</navaid:name>
<navaid:state>BC</navaid:state>
<navaid:country>CA</navaid:country>
<navaid:lastupdate>2009-12-15</navaid:lastupdate>
<navaid:magvar>-18.8</navaid:magvar>
</extensions>
</wpt>
<wpt lat="50.204722" lon="-124.744722">
<magvar>341.0</magvar>
<name>POWOL</name>
<cmt>POWOL,BC,CA</cmt>
<type>REP-PT</type>
<extensions>
<navaid:name>POWOL</navaid:name>
<navaid:state>BC</navaid:state>
<navaid:country>CA</navaid:country>
<navaid:lastupdate>2009-12-15</navaid:lastupdate>
<navaid:magvar>-19.02</navaid:magvar>
</extensions>
</wpt>
<wpt lat="50.006389" lon="-125.357500">
<magvar>341.0</magvar>
<name>YBL</name>
<cmt>CAMPBELL RIVER,BC,CA, Frequency:203</cmt>
<type>NDB</type>
<extensions>
<navaid:name>CAMPBELL RIVER</navaid:name>
<navaid:state>BC</navaid:state>
<navaid:country>CA</navaid:country>
<navaid:lastupdate>2009-12-15</navaid:lastupdate>
<navaid:frequencies>
<navaid:frequency type="NAV" frequency="203" name="NAVAID"/>
</navaid:frequencies>
<navaid:magvar>-19.05</navaid:magvar>
</extensions>
</wpt>
<wpt lat="50.255000" lon="-124.998333">
<magvar>340.9</magvar>
<name>AGGUA</name>
<cmt>AGGUA,BC,CA</cmt>
<type>REP-PT</type>
<extensions>
<navaid:name>AGGUA</navaid:name>
<navaid:state>BC</navaid:state>
<navaid:country>CA</navaid:country>
<navaid:lastupdate>2009-12-15</navaid:lastupdate>
<navaid:magvar>-19.1</navaid:magvar>
</extensions>
</wpt>
<wpt lat="53.766667" lon="-129.846111">
<magvar>339.1</magvar>
<name>MITEK</name>
<cmt>MITEK,BC,CA</cmt>
<type>REP-PT</type>
<extensions>
<navaid:name>MITEK</navaid:name>
<navaid:state>BC</navaid:state>
<navaid:country>CA</navaid:country>
<navaid:lastupdate>2009-12-15</navaid:lastupdate>
<navaid:magvar>-20.98</navaid:magvar>
</extensions>
</wpt>
<wpt lat="53.679444" lon="-130.190833">
<magvar>339.1</magvar>
<name>SPYSR</name>
<cmt>SPYSR,BC,CA</cmt>
<type>REP-PT</type>
<extensions>
<navaid:name>SPYSR</navaid:name>
<navaid:state>BC</navaid:state>
<navaid:country>CA</navaid:country>
<navaid:lastupdate>2009-12-15</navaid:lastupdate>
<navaid:magvar>-20.95</navaid:magvar>
</extensions>
</wpt>
<wpt lat="54.031667" lon="-132.127222">
<magvar>338.9</magvar>
<name>1U</name>
<cmt>MASSET,BC,CA, Frequency:278</cmt>
<type>NDB</type>
<extensions>
<navaid:name>MASSET</navaid:name>
<navaid:state>BC</navaid:state>
<navaid:country>CA</navaid:country>
<navaid:lastupdate>2009-12-15</navaid:lastupdate>
<navaid:frequencies>
<navaid:frequency type="NAV" frequency="278" name="NAVAID"/>
</navaid:frequencies>
<navaid:magvar>-21.12</navaid:magvar>
</extensions>
</wpt>
<wpt lat="54.290556" lon="-130.450556">
<magvar>338.8</magvar>
<name>IPR</name>
<cmt>PRINCE RUPERT,BC,CA</cmt>
<type>DME</type>
<extensions>
<navaid:name>PRINCE RUPERT</navaid:name>
<navaid:state>BC</navaid:state>
<navaid:country>CA</navaid:country>
<navaid:lastupdate>2009-12-15</navaid:lastupdate>
<navaid:magvar>-21.22</navaid:magvar>
</extensions>
</wpt>
<wpt lat="54.083333" lon="-134.500000">
<magvar>339.0</magvar>
<name>JOWEN</name>
<cmt>JOWEN,BC,CA</cmt>
<type>RNAV-WP</type>
<extensions>
<navaid:name>JOWEN</navaid:name>
<navaid:state>BC</navaid:state>
<navaid:country>CA</navaid:country>
<navaid:lastupdate>2009-12-15</navaid:lastupdate>
<navaid:magvar>-21.06</navaid:magvar>
</extensions>
</wpt>
<wpt lat="51.000000" lon="-126.500000">
<magvar>340.5</magvar>
<name>KEVNA</name>
<cmt>KEVNA,BC,CA</cmt>
<type>REP-PT</type>
<extensions>
<navaid:name>KEVNA</navaid:name>
<navaid:state>BC</navaid:state>
<navaid:country>CA</navaid:country>
<navaid:lastupdate>2009-12-15</navaid:lastupdate>
<navaid:magvar>-19.58</navaid:magvar>
</extensions>
</wpt>
<wpt lat="51.346667" lon="-127.921667">
<magvar>340.2</magvar>
<name>SHALE</name>
<cmt>SHALE,BC,CA</cmt>
<type>REP-PT</type>
<extensions>
<navaid:name>SHALE</navaid:name>
<navaid:state>BC</navaid:state>
<navaid:country>CA</navaid:country>
<navaid:lastupdate>2009-12-15</navaid:lastupdate>
<navaid:magvar>-19.86</navaid:magvar>
</extensions>
</wpt>
<wpt lat="51.295000" lon="-129.088333">
<magvar>340.1</magvar>
<name>CAFTA</name>
<cmt>CAFTA,BC,CA</cmt>
<type>REP-PT</type>
<extensions>
<navaid:name>CAFTA</navaid:name>
<navaid:state>BC</navaid:state>
<navaid:country>CA</navaid:country>
<navaid:lastupdate>2009-12-15</navaid:lastupdate>
<navaid:magvar>-19.93</navaid:magvar>
</extensions>
</wpt>
<wpt lat="50.782222" lon="-128.426944">
<magvar>340.4</magvar>
<name>SIMSU</name>
<cmt>SIMSU,BC,CA</cmt>
<type>REP-PT</type>
<extensions>
<navaid:name>SIMSU</navaid:name>
<navaid:state>BC</navaid:state>
<navaid:country>CA</navaid:country>
<navaid:lastupdate>2009-12-15</navaid:lastupdate>
<navaid:magvar>-19.68</navaid:magvar>
</extensions>
</wpt>
<wpt lat="51.093056" lon="-128.021389">
<magvar>340.3</magvar>
<name>YOLKK</name>
<cmt>YOLKK,BC,CA</cmt>
<type>REP-PT</type>
<extensions>
<navaid:name>YOLKK</navaid:name>
<navaid:state>BC</navaid:state>
<navaid:country>CA</navaid:country>
<navaid:lastupdate>2009-12-15</navaid:lastupdate>
<navaid:magvar>-19.77</navaid:magvar>
</extensions>
</wpt>
<wpt lat="52.379722" lon="-125.181111">
<magvar>340.1</magvar>
<name>UAB</name>
<cmt>ANAHIM LAKE,BC,CA, Frequency:200</cmt>
<type>NDB</type>
<extensions>
<navaid:name>ANAHIM LAKE</navaid:name>
<navaid:state>BC</navaid:state>
<navaid:country>CA</navaid:country>
<navaid:lastupdate>2009-12-15</navaid:lastupdate>
<navaid:frequencies>
<navaid:frequency type="NAV" frequency="200" name="NAVAID"/>
</navaid:frequencies>
<navaid:magvar>-19.96</navaid:magvar>
</extensions>
</wpt>
<wpt lat="54.824722" lon="-127.180278">
<magvar>338.8</magvar>
<name>M9</name>
<cmt>KATHLYN,BC,CA, Frequency:240</cmt>
<type>NDB</type>
<extensions>
<navaid:name>KATHLYN</navaid:name>
<navaid:state>BC</navaid:state>
<navaid:country>CA</navaid:country>
<navaid:lastupdate>2009-12-15</navaid:lastupdate>
<navaid:frequencies>
<navaid:frequency type="NAV" frequency="240" name="NAVAID"/>
</navaid:frequencies>
<navaid:magvar>-21.26</navaid:magvar>
</extensions>
</wpt>
<wpt lat="54.669722" lon="-126.992500">
<magvar>338.9</magvar>
<name>TK</name>
<cmt>TELKWA (SMITHERS),BC,CA, Frequency:391</cmt>
<type>NDB</type>
<extensions>
<navaid:name>TELKWA (SMITHERS)</navaid:name>
<navaid:state>BC</navaid:state>
<navaid:country>CA</navaid:country>
<navaid:lastupdate>2009-12-15</navaid:lastupdate>
<navaid:frequencies>
<navaid:frequency type="NAV" frequency="391" name="NAVAID"/>
</navaid:frequencies>
<navaid:magvar>-21.17</navaid:magvar>
</extensions>
</wpt>
<wpt lat="54.460833" lon="-128.587778">
<magvar>338.8</magvar>
<name>IXT</name>
<cmt>TERRACE,BC,CA</cmt>
<type>DME</type>
<extensions>
<navaid:name>TERRACE</navaid:name>
<navaid:state>BC</navaid:state>
<navaid:country>CA</navaid:country>
<navaid:lastupdate>2009-12-15</navaid:lastupdate>
<navaid:magvar>-21.21</navaid:magvar>
</extensions>
</wpt>
<wpt lat="53.888333" lon="-125.440000">
<magvar>339.4</magvar>
<name>NAAPP</name>
<cmt>NAAPP,BC,CA</cmt>
<type>REP-PT</type>
<extensions>
<navaid:name>NAAPP</navaid:name>
<navaid:state>BC</navaid:state>
<navaid:country>CA</navaid:country>
<navaid:lastupdate>2009-12-15</navaid:lastupdate>
<navaid:magvar>-20.64</navaid:magvar>
</extensions>
</wpt>
<wpt lat="54.151667" lon="-124.240000">
<magvar>339.5</magvar>
<name>DAVON</name>
<cmt>DAVON,BC,CA</cmt>
<type>REP-PT</type>
<extensions>
<navaid:name>DAVON</navaid:name>
<navaid:state>BC</navaid:state>
<navaid:country>CA</navaid:country>
<navaid:lastupdate>2009-12-15</navaid:lastupdate>
<navaid:magvar>-20.56</navaid:magvar>
</extensions>
</wpt>
<wpt lat="49.043056" lon="-116.480278">
<magvar>343.5</magvar>
<name>U6</name>
<cmt>CRESTON,BC,CA, Frequency:360</cmt>
<type>NDB</type>
<extensions>
<navaid:name>CRESTON</navaid:name>
<navaid:state>BC</navaid:state>
<navaid:country>CA</navaid:country>
<navaid:lastupdate>2009-12-15</navaid:lastupdate>
<navaid:frequencies>
<navaid:frequency type="NAV" frequency="360" name="NAVAID"/>
</navaid:frequencies>
<navaid:magvar>-16.57</navaid:magvar>
</extensions>
</wpt>
<wpt lat="49.176389" lon="-116.605278">
<magvar>343.4</magvar>
<name>W6</name>
<cmt>CRESTON NORTH,BC,CA, Frequency:233</cmt>
<type>NDB</type>
<extensions>
<navaid:name>CRESTON NORTH</navaid:name>
<navaid:state>BC</navaid:state>
<navaid:country>CA</navaid:country>
<navaid:lastupdate>2009-12-15</navaid:lastupdate>
<navaid:frequencies>
<navaid:frequency type="NAV" frequency="233" name="NAVAID"/>
</navaid:frequencies>
<navaid:magvar>-16.66</navaid:magvar>
</extensions>
</wpt>
<wpt lat="49.252222" lon="-117.662778">
<magvar>343.0</magvar>
<name>XCG</name>
<cmt>CASTLEGAR,BC,CA</cmt>
<type>DME</type>
<extensions>
<navaid:name>CASTLEGAR</navaid:name>
<navaid:state>BC</navaid:state>
<navaid:country>CA</navaid:country>
<navaid:lastupdate>2009-12-15</navaid:lastupdate>
<navaid:magvar>-17.03</navaid:magvar>
</extensions>
</wpt>
<wpt lat="50.358333" lon="-115.628333">
<magvar>343.4</magvar>
<name>LUMBY</name>
<cmt>LUMBY,BC,CA</cmt>
<type>REP-PT</type>
<extensions>
<navaid:name>LUMBY</navaid:name>
<navaid:state>BC</navaid:state>
<navaid:country>CA</navaid:country>
<navaid:lastupdate>2009-12-15</navaid:lastupdate>
<navaid:magvar>-16.68</navaid:magvar>
</extensions>
</wpt>
<wpt lat="50.326944" lon="-115.876667">
<magvar>343.3</magvar>
<name>D6</name>
<cmt>FAIRMONT HOT SPRINGS,BC,CA, Frequency:261</cmt>
<type>NDB/DME</type>
<extensions>
<navaid:name>FAIRMONT HOT SPRINGS</navaid:name>
<navaid:state>BC</navaid:state>
<navaid:country>CA</navaid:country>
<navaid:lastupdate>2009-12-15</navaid:lastupdate>
<navaid:frequencies>
<navaid:frequency type="NAV" frequency="261" name="NAVAID"/>
</navaid:frequencies>
<navaid:magvar>-16.76</navaid:magvar>
</extensions>
</wpt>
<wpt lat="50.010000" lon="-117.205000">
<magvar>342.9</magvar>
<name>ATHUR</name>
<cmt>ATHUR,BC,CA</cmt>
<type>REP-PT</type>
<extensions>
<navaid:name>ATHUR</navaid:name>
<navaid:state>BC</navaid:state>
<navaid:country>CA</navaid:country>
<navaid:lastupdate>2009-12-15</navaid:lastupdate>
<navaid:magvar>-17.14</navaid:magvar>
</extensions>
</wpt>
<wpt lat="50.046667" lon="-116.151667">
<magvar>343.3</magvar>
<name>CHITE</name>
<cmt>CHITE,BC,CA</cmt>
<type>REP-PT</type>
<extensions>
<navaid:name>CHITE</navaid:name>
<navaid:state>BC</navaid:state>
<navaid:country>CA</navaid:country>
<navaid:lastupdate>2009-12-15</navaid:lastupdate>
<navaid:magvar>-16.78</navaid:magvar>
</extensions>
</wpt>
<wpt lat="49.970001" lon="-116.143333">
<magvar>343.3</magvar>
<name>WOFFI</name>
<cmt>WOFFI,BC,CA</cmt>
<type>REP-PT</type>
<extensions>
<navaid:name>WOFFI</navaid:name>
<navaid:state>BC</navaid:state>
<navaid:country>CA</navaid:country>
<navaid:lastupdate>2009-12-15</navaid:lastupdate>
<navaid:magvar>-16.75</navaid:magvar>
</extensions>
</wpt>
<wpt lat="49.815000" lon="-117.441667">
<magvar>342.9</magvar>
<name>KANEE</name>
<cmt>KANEE,BC,CA</cmt>
<type>REP-PT</type>
<extensions>
<navaid:name>KANEE</navaid:name>
<navaid:state>BC</navaid:state>
<navaid:country>CA</navaid:country>
<navaid:lastupdate>2009-12-15</navaid:lastupdate>
<navaid:magvar>-17.15</navaid:magvar>
</extensions>
</wpt>
<wpt lat="49.618333" lon="-115.787500">
<magvar>343.7</magvar>
<name>IXC</name>
<cmt>CRANBROOK,BC,CA</cmt>
<type>DME</type>
<extensions>
<navaid:name>CRANBROOK</navaid:name>
<navaid:state>BC</navaid:state>
<navaid:country>CA</navaid:country>
<navaid:lastupdate>2009-12-15</navaid:lastupdate>
<navaid:magvar>-16.38</navaid:magvar>
</extensions>
</wpt>
<wpt lat="49.678333" lon="-115.783333">
<magvar>343.5</magvar>
<name>DUTAX</name>
<cmt>DUTAX,BC,CA</cmt>
<type>REP-PT</type>
<extensions>
<navaid:name>DUTAX</navaid:name>
<navaid:state>BC</navaid:state>
<navaid:country>CA</navaid:country>
<navaid:lastupdate>2009-12-15</navaid:lastupdate>
<navaid:magvar>-16.52</navaid:magvar>
</extensions>
</wpt>
<wpt lat="49.700000" lon="-116.825000">
<magvar>343.1</magvar>
<name>LEFAL</name>
<cmt>LEFAL,BC,CA</cmt>
<type>REP-PT</type>
<extensions>
<navaid:name>LEFAL</navaid:name>
<navaid:state>BC</navaid:state>
<navaid:country>CA</navaid:country>
<navaid:lastupdate>2009-12-15</navaid:lastupdate>
<navaid:magvar>-16.9</navaid:magvar>
</extensions>
</wpt>
<wpt lat="49.511667" lon="-117.551667">
<magvar>343.0</magvar>
<name>LOCAN</name>
<cmt>LOCAN,BC,CA</cmt>
<type>REP-PT</type>
<extensions>
<navaid:name>LOCAN</navaid:name>
<navaid:state>BC</navaid:state>
<navaid:country>CA</navaid:country>
<navaid:lastupdate>2009-12-15</navaid:lastupdate>
<navaid:magvar>-17.09</navaid:magvar>
</extensions>
</wpt>
<wpt lat="49.515833" lon="-117.074722">
<magvar>343.1</magvar>
<name>TESAK</name>
<cmt>TESAK (U6 R301.5/D36.0),BC,CA</cmt>
<type>REP-PT</type>
<extensions>
<navaid:name>TESAK (U6 R301.5/D36.0)</navaid:name>
<navaid:state>BC</navaid:state>
<navaid:country>CA</navaid:country>
<navaid:lastupdate>2009-12-15</navaid:lastupdate>
<navaid:magvar>-16.93</navaid:magvar>
</extensions>
</wpt>
<wpt lat="49.550000" lon="-116.345000">
<magvar>343.4</magvar>
<name>ALDDA</name>
<cmt>ALDDA,BC,CA</cmt>
<type>REP-PT</type>
<extensions>
<navaid:name>ALDDA</navaid:name>
<navaid:state>BC</navaid:state>
<navaid:country>CA</navaid:country>
<navaid:lastupdate>2009-12-15</navaid:lastupdate>
<navaid:magvar>-16.69</navaid:magvar>
</extensions>
</wpt>
<wpt lat="49.460833" lon="-118.085556">
<magvar>342.8</magvar>
<name>ANJER</name>
<cmt>ANJER (2J R7.5/D29.0),BC,CA</cmt>
<type>REP-PT</type>
<extensions>
<navaid:name>ANJER (2J R7.5/D29.0)</navaid:name>
<navaid:state>BC</navaid:state>
<navaid:country>CA</navaid:country>
<navaid:lastupdate>2009-12-15</navaid:lastupdate>
<navaid:magvar>-17.24</navaid:magvar>
</extensions>
</wpt>
<wpt lat="49.493333" lon="-118.062500">
<magvar>342.8</magvar>
<name>DASBI</name>
<cmt>DASBI,BC,CA</cmt>
<type>REP-PT</type>
<extensions>
<navaid:name>DASBI</navaid:name>
<navaid:state>BC</navaid:state>
<navaid:country>CA</navaid:country>
<navaid:lastupdate>2009-12-15</navaid:lastupdate>
<navaid:magvar>-17.24</navaid:magvar>
</extensions>
</wpt>
<wpt lat="49.530556" lon="-117.041111">
<magvar>343.1</magvar>
<name>ERVYN</name>
<cmt>ERVYN,BC,CA</cmt>
<type>REP-PT</type>
<extensions>
<navaid:name>ERVYN</navaid:name>
<navaid:state>BC</navaid:state>
<navaid:country>CA</navaid:country>
<navaid:lastupdate>2009-12-15</navaid:lastupdate>
<navaid:magvar>-16.92</navaid:magvar>
</extensions>
</wpt>
<wpt lat="50.534444" lon="-116.267778">
<magvar>343.1</magvar>
<name>HOWZR</name>
<cmt>HOWZR,BC,CA</cmt>
<type>REP-PT</type>
<extensions>
<navaid:name>HOWZR</navaid:name>
<navaid:state>BC</navaid:state>
<navaid:country>CA</navaid:country>
<navaid:lastupdate>2009-12-15</navaid:lastupdate>
<navaid:magvar>-16.96</navaid:magvar>
</extensions>
</wpt>
<wpt lat="50.165001" lon="-115.250000">
<magvar>343.6</magvar>
<name>CONER</name>
<cmt>CONER,BC,CA</cmt>
<type>REP-PT</type>
<extensions>
<navaid:name>CONER</navaid:name>
<navaid:state>BC</navaid:state>
<navaid:country>CA</navaid:country>
<navaid:lastupdate>2009-12-15</navaid:lastupdate>
<navaid:magvar>-16.47</navaid:magvar>
</extensions>
</wpt>
<wpt lat="49.926667" lon="-115.143333">
<magvar>343.7</magvar>
<name>KNEIL</name>
<cmt>KNEIL,BC,CA</cmt>
<type>REP-PT</type>
<extensions>
<navaid:name>KNEIL</navaid:name>
<navaid:state>BC</navaid:state>
<navaid:country>CA</navaid:country>
<navaid:lastupdate>2009-12-15</navaid:lastupdate>
<navaid:magvar>-16.35</navaid:magvar>
</extensions>
</wpt>
<wpt lat="49.837222" lon="-114.884444">
<magvar>343.8</magvar>
<name>5M</name>
<cmt>SPARWOOD,BC,CA, Frequency:400</cmt>
<type>NDB</type>
<extensions>
<navaid:name>SPARWOOD</navaid:name>
<navaid:state>BC</navaid:state>
<navaid:country>CA</navaid:country>
<navaid:lastupdate>2009-12-15</navaid:lastupdate>
<navaid:frequencies>
<navaid:frequency type="NAV" frequency="400" name="NAVAID"/>
</navaid:frequencies>
<navaid:magvar>-16.22</navaid:magvar>
</extensions>
</wpt>
<wpt lat="49.586667" lon="-115.139444">
<magvar>343.8</magvar>
<name>FIRNI</name>
<cmt>FIRNI,BC,CA</cmt>
<type>REP-PT</type>
<extensions>
<navaid:name>FIRNI</navaid:name>
<navaid:state>BC</navaid:state>
<navaid:country>CA</navaid:country>
<navaid:lastupdate>2009-12-15</navaid:lastupdate>
<navaid:magvar>-16.23</navaid:magvar>
</extensions>
</wpt>
<wpt lat="50.373164" lon="-126.531078">
<magvar>340.7</magvar>
<name>ATUNA</name>
<cmt>ATUNA,BC,CA</cmt>
<type>REP-PT</type>
<extensions>
<navaid:name>ATUNA</navaid:name>
<navaid:state>BC</navaid:state>
<navaid:country>CA</navaid:country>
<navaid:lastupdate>2009-12-15</navaid:lastupdate>
<navaid:magvar>-19.34</navaid:magvar>
</extensions>
</wpt>
<wpt lat="50.100000" lon="-124.591667">
<magvar>341.1</magvar>
<name>BOOPY</name>
<cmt>BOOPY,BC,CA</cmt>
<type>REP-PT</type>
<extensions>
<navaid:name>BOOPY</navaid:name>
<navaid:state>BC</navaid:state>
<navaid:country>CA</navaid:country>
<navaid:lastupdate>2009-12-15</navaid:lastupdate>
<navaid:magvar>-18.97</navaid:magvar>
</extensions>
</wpt>
<wpt lat="50.250000" lon="-127.566667">
<magvar>340.6</magvar>
<name>FINGS</name>
<cmt>FINGS,BC,CA</cmt>
<type>REP-PT</type>
<extensions>
<navaid:name>FINGS</navaid:name>
<navaid:state>BC</navaid:state>
<navaid:country>CA</navaid:country>
<navaid:lastupdate>2009-12-15</navaid:lastupdate>
<navaid:magvar>-19.4</navaid:magvar>
</extensions>
</wpt>
<wpt lat="49.952500" lon="-125.275833">
<magvar>341.0</magvar>
<name>IBL</name>
<cmt>CAMPBELL RIVER,BC,CA</cmt>
<type>DME</type>
<extensions>
<navaid:name>CAMPBELL RIVER</navaid:name>
<navaid:state>BC</navaid:state>
<navaid:country>CA</navaid:country>
<navaid:lastupdate>2009-12-15</navaid:lastupdate>
<navaid:magvar>-19.02</navaid:magvar>
</extensions>
</wpt>
<wpt lat="49.940556" lon="-125.413889">
<magvar>341.0</magvar>
<name>COHOE</name>
<cmt>COHOE,BC,CA</cmt>
<type>REP-PT</type>
<extensions>
<navaid:name>COHOE</navaid:name>
<navaid:state>BC</navaid:state>
<navaid:country>CA</navaid:country>
<navaid:lastupdate>2009-12-15</navaid:lastupdate>
<navaid:magvar>-19.04</navaid:magvar>
</extensions>
</wpt>
<wpt lat="49.475833" lon="-124.178611">
<magvar>341.4</magvar>
<name>MACAR</name>
<cmt>MACAR,BC,CA</cmt>
<type>REP-PT</type>
<extensions>
<navaid:name>MACAR</navaid:name>
<navaid:state>BC</navaid:state>
<navaid:country>CA</navaid:country>
<navaid:lastupdate>2009-12-15</navaid:lastupdate>
<navaid:magvar>-18.68</navaid:magvar>
</extensions>
</wpt>
<wpt lat="49.828333" lon="-124.201667">
<magvar>341.2</magvar>
<name>SULRY</name>
<cmt>SULRY,BC,CA</cmt>
<type>REP-PT</type>
<extensions>
<navaid:name>SULRY</navaid:name>
<navaid:state>BC</navaid:state>
<navaid:country>CA</navaid:country>
<navaid:lastupdate>2009-12-15</navaid:lastupdate>
<navaid:magvar>-18.81</navaid:magvar>
</extensions>
</wpt>
<wpt lat="49.835556" lon="-124.499167">
<magvar>341.2</magvar>
<name>9S</name>
<cmt>POWELL RIVER BC,BC,CA</cmt>
<type>DME</type>
<extensions>
<navaid:name>POWELL RIVER BC</navaid:name>
<navaid:state>BC</navaid:state>
<navaid:country>CA</navaid:country>
<navaid:lastupdate>2009-12-15</navaid:lastupdate>
<navaid:magvar>-18.86</navaid:magvar>
</extensions>
</wpt>
<wpt lat="49.836667" lon="-124.501389">
<magvar>341.2</magvar>
<name>YPW</name>
<cmt>POWELL RIVER,BC,CA, Frequency:382</cmt>
<type>NDB</type>
<extensions>
<navaid:name>POWELL RIVER</navaid:name>
<navaid:state>BC</navaid:state>
<navaid:country>CA</navaid:country>
<navaid:lastupdate>2009-12-15</navaid:lastupdate>
<navaid:frequencies>
<navaid:frequency type="NAV" frequency="382" name="NAVAID"/>
</navaid:frequencies>
<navaid:magvar>-18.86</navaid:magvar>
</extensions>
</wpt>
<wpt lat="49.632222" lon="-123.920000">
<magvar>341.4</magvar>
<name>DUPOD</name>
<cmt>DUPOD,BC,CA</cmt>
<type>REP-PT</type>
<extensions>
<navaid:name>DUPOD</navaid:name>
<navaid:state>BC</navaid:state>
<navaid:country>CA</navaid:country>
<navaid:lastupdate>2009-12-15</navaid:lastupdate>
<navaid:magvar>-18.69</navaid:magvar>
</extensions>
</wpt>
<wpt lat="49.518333" lon="-124.288333">
<magvar>341.3</magvar>
<name>JAINE</name>
<cmt>JAINE,BC,CA</cmt>
<type>REP-PT</type>
<extensions>
<navaid:name>JAINE</navaid:name>
<navaid:state>BC</navaid:state>
<navaid:country>CA</navaid:country>
<navaid:lastupdate>2009-12-15</navaid:lastupdate>
<navaid:magvar>-18.71</navaid:magvar>
</extensions>
</wpt>
<wpt lat="50.606667" lon="-126.910000">
<magvar>340.6</magvar>
<name>SOINT</name>
<cmt>SOINT,BC,CA</cmt>
<type>REP-PT</type>
<extensions>
<navaid:name>SOINT</navaid:name>
<navaid:state>BC</navaid:state>
<navaid:country>CA</navaid:country>
<navaid:lastupdate>2009-12-15</navaid:lastupdate>
<navaid:magvar>-19.47</navaid:magvar>
</extensions>
</wpt>
<wpt lat="50.543333" lon="-126.980000">
<magvar>340.6</magvar>
<name>CORMO</name>
<cmt>CORMO,BC,CA</cmt>
<type>REP-PT</type>
<extensions>
<navaid:name>CORMO</navaid:name>
<navaid:state>BC</navaid:state>
<navaid:country>CA</navaid:country>
<navaid:lastupdate>2009-12-15</navaid:lastupdate>
<navaid:magvar>-19.46</navaid:magvar>
</extensions>
</wpt>
<wpt lat="50.458333" lon="-126.755000">
<magvar>340.6</magvar>
<name>FENEL</name>
<cmt>FENEL,BC,CA</cmt>
<type>REP-PT</type>
<extensions>
<navaid:name>FENEL</navaid:name>
<navaid:state>BC</navaid:state>
<navaid:country>CA</navaid:country>
<navaid:lastupdate>2009-12-15</navaid:lastupdate>
<navaid:magvar>-19.4</navaid:magvar>
</extensions>
</wpt>
<wpt lat="50.455000" lon="-126.066667">
<magvar>340.7</magvar>
<name>KELSY</name>
<cmt>KELSY,BC,CA</cmt>
<type>REP-PT</type>
<extensions>
<navaid:name>KELSY</navaid:name>
<navaid:state>BC</navaid:state>
<navaid:country>CA</navaid:country>
<navaid:lastupdate>2009-12-15</navaid:lastupdate>
<navaid:magvar>-19.32</navaid:magvar>
</extensions>
</wpt>
<wpt lat="50.435278" lon="-124.236389">
<magvar>341.0</magvar>
<name>TRENA</name>
<cmt>TRENA,BC,CA</cmt>
<type>REP-PT</type>
<extensions>
<navaid:name>TRENA</navaid:name>
<navaid:state>BC</navaid:state>
<navaid:country>CA</navaid:country>
<navaid:lastupdate>2009-12-15</navaid:lastupdate>
<navaid:magvar>-19.02</navaid:magvar>
</extensions>
</wpt>
<wpt lat="48.741667" lon="-123.276667">
<magvar>341.8</magvar>
<name>PENDR</name>
<cmt>PENDR,BC,CA</cmt>
<type>REP-PT</type>
<extensions>
<navaid:name>PENDR</navaid:name>
<navaid:state>BC</navaid:state>
<navaid:country>CA</navaid:country>
<navaid:lastupdate>2009-12-15</navaid:lastupdate>
<navaid:magvar>-18.25</navaid:magvar>
</extensions>
</wpt>
<wpt lat="48.783333" lon="-123.535000">
<magvar>341.7</magvar>
<name>CAMZO</name>
<cmt>CAMZO,BC,CA</cmt>
<type>REP-PT</type>
<extensions>
<navaid:name>CAMZO</navaid:name>
<navaid:state>BC</navaid:state>
<navaid:country>CA</navaid:country>
<navaid:lastupdate>2009-12-15</navaid:lastupdate>
<navaid:magvar>-18.31</navaid:magvar>
</extensions>
</wpt>
<wpt lat="49.050000" lon="-121.395278">
<magvar>342.1</magvar>
<name>CILLI</name>
<cmt>CILLI,BC,CA</cmt>
<type>REP-PT</type>
<extensions>
<navaid:name>CILLI</navaid:name>
<navaid:state>BC</navaid:state>
<navaid:country>CA</navaid:country>
<navaid:lastupdate>2009-12-15</navaid:lastupdate>
<navaid:magvar>-17.96</navaid:magvar>
</extensions>
</wpt>
<wpt lat="49.071944" lon="-122.048333">
<magvar>341.9</magvar>
<name>YARRO</name>
<cmt>YARRO,BC,CA</cmt>
<type>REP-PT</type>
<extensions>
<navaid:name>YARRO</navaid:name>
<navaid:state>BC</navaid:state>
<navaid:country>CA</navaid:country>
<navaid:lastupdate>2009-12-15</navaid:lastupdate>
<navaid:magvar>-18.13</navaid:magvar>
</extensions>
</wpt>
<wpt lat="58.798333" lon="-121.345000">
<magvar>337.9</magvar>
<name>3I</name>
<cmt>MOBIL SIERRA,BC,CA, Frequency:397</cmt>
<type>NDB</type>
<extensions>
<navaid:name>MOBIL SIERRA</navaid:name>
<navaid:state>BC</navaid:state>
<navaid:country>CA</navaid:country>
<navaid:lastupdate>2009-12-15</navaid:lastupdate>
<navaid:frequencies>
<navaid:frequency type="NAV" frequency="397" name="NAVAID"/>
</navaid:frequencies>
<navaid:magvar>-22.15</navaid:magvar>
</extensions>
</wpt>
<wpt lat="59.421389" lon="-120.789444">
<magvar>337.7</magvar>
<name>4D</name>
<cmt>HELMET,BC,CA, Frequency:364</cmt>
<type>NDB</type>
<extensions>
<navaid:name>HELMET</navaid:name>
<navaid:state>BC</navaid:state>
<navaid:country>CA</navaid:country>
<navaid:lastupdate>2009-12-15</navaid:lastupdate>
<navaid:frequencies>
<navaid:frequency type="NAV" frequency="364" name="NAVAID"/>
</navaid:frequencies>
<navaid:magvar>-22.31</navaid:magvar>
</extensions>
</wpt>
<wpt lat="58.795833" lon="-122.722500">
<magvar>337.6</magvar>
<name>YE</name>
<cmt>FORT NELSON,BC,CA, Frequency:382</cmt>
<type>NDB</type>
<extensions>
<navaid:name>FORT NELSON</navaid:name>
<navaid:state>BC</navaid:state>
<navaid:country>CA</navaid:country>
<navaid:lastupdate>2009-12-15</navaid:lastupdate>
<navaid:frequencies>
<navaid:frequency type="NAV" frequency="382" name="NAVAID"/>
</navaid:frequencies>
<navaid:magvar>-22.49</navaid:magvar>
</extensions>
</wpt>
<wpt lat="58.891667" lon="-123.016111">
<magvar>337.4</magvar>
<name>YYE</name>
<cmt>FORT NELSON,BC,CA, Frequency:112.90</cmt>
<type>VOR/DME</type>
<extensions>
<navaid:name>FORT NELSON</navaid:name>
<navaid:state>BC</navaid:state>
<navaid:country>CA</navaid:country>
<navaid:lastupdate>2009-12-15</navaid:lastupdate>
<navaid:frequencies>
<navaid:frequency type="NAV" frequency="112.90" name="NAVAID"/>
</navaid:frequencies>
<navaid:magvar>-22.6</navaid:magvar>
</extensions>
</wpt>
<wpt lat="56.284444" lon="-120.844722">
<magvar>339.3</magvar>
<name>XJ</name>
<cmt>FORT ST. JOHN,BC,CA, Frequency:326</cmt>
<type>NDB</type>
<extensions>
<navaid:name>FORT ST. JOHN</navaid:name>
<navaid:state>BC</navaid:state>
<navaid:country>CA</navaid:country>
<navaid:lastupdate>2009-12-15</navaid:lastupdate>
<navaid:frequencies>
<navaid:frequency type="NAV" frequency="326" name="NAVAID"/>
</navaid:frequencies>
<navaid:magvar>-20.77</navaid:magvar>
</extensions>
</wpt>
<wpt lat="56.284167" lon="-120.895556">
<magvar>339.3</magvar>
<name>YXJ</name>
<cmt>FORT ST. JOHN,BC,CA, Frequency:114.20</cmt>
<type>VOR/DME</type>
<extensions>
<navaid:name>FORT ST. JOHN</navaid:name>
<navaid:state>BC</navaid:state>
<navaid:country>CA</navaid:country>
<navaid:lastupdate>2009-12-15</navaid:lastupdate>
<navaid:frequencies>
<navaid:frequency type="NAV" frequency="114.20" name="NAVAID"/>
</navaid:frequencies>
<navaid:magvar>-20.78</navaid:magvar>
</extensions>
</wpt>
<wpt lat="49.036111" lon="-122.314167">
<ele>87.4776</ele>
<magvar>341.0</magvar>
<name>CAB5</name>
<cmt><![CDATA[ABBOTSFORD (REGIONAL HOSP & CANCER CENTRE) ,BC,CA]]></cmt>
<type>HELIPORT</type>
<extensions>
<navaid:name><![CDATA[ABBOTSFORD (REGIONAL HOSP & CANCER CENTRE) ]]></navaid:name>
<navaid:state>BC</navaid:state>
<navaid:country>CA</navaid:country>
<navaid:lastupdate>2009-12-15</navaid:lastupdate>
<navaid:magvar>-19</navaid:magvar>
</extensions>
</wpt>
<wpt lat="53.088056" lon="-121.515278">
<ele>1237.488</ele>
<magvar>340.0</magvar>
<name>CAS3</name>
<cmt>BARKERVILLE,BC,CA</cmt>
<type>AIRPORT</type>
<extensions>
<navaid:name>BARKERVILLE</navaid:name>
<navaid:state>BC</navaid:state>
<navaid:country>CA</navaid:country>
<navaid:lastupdate>2009-12-15</navaid:lastupdate>
<navaid:frequencies>
<navaid:frequency type="TFC" frequency="123.200" name="TFC"/>
<navaid:frequency type="CTAF" frequency="123.2" name="CTAF"/>
</navaid:frequencies>
<navaid:runways>
<navaid:runway designation="11/29" length="2700" width="40" surface="ASPHALT">
</navaid:runway>
</navaid:runways>
<navaid:magvar>-20</navaid:magvar>
</extensions>
</wpt>
<wpt lat="53.855556" lon="-122.907500">
<ele>737.616</ele>
<magvar>339.0</magvar>
<name>CBA8</name>
<cmt>BEAVERLEY,BC,CA</cmt>
<type>AIRPORT</type>
<extensions>
<navaid:name>BEAVERLEY</navaid:name>
<navaid:state>BC</navaid:state>
<navaid:country>CA</navaid:country>
<navaid:lastupdate>2010-11-13</navaid:lastupdate>
<navaid:frequencies>
<navaid:frequency type="TFC" frequency="122.100" name="TFC"/>
<navaid:frequency type="CTAF" frequency="122.1" name="CTAF"/>
</navaid:frequencies>
<navaid:runways>
<navaid:runway designation="07/25" length="2461" width="50" surface="GRAVEL">
</navaid:runway>
</navaid:runways>
<navaid:magvar>-21</navaid:magvar>
</extensions>
</wpt>
<wpt lat="48.800000" lon="-123.423611">
<ele>218.5416</ele>
<magvar>341.0</magvar>
<name>CBB4</name>
<cmt>BEDDIS BEACH ,BC,CA</cmt>
<type>HELIPORT</type>
<extensions>
<navaid:name>BEDDIS BEACH </navaid:name>
<navaid:state>BC</navaid:state>
<navaid:country>CA</navaid:country>
<navaid:lastupdate>2010-11-13</navaid:lastupdate>
<navaid:magvar>-19</navaid:magvar>
</extensions>
</wpt>
<wpt lat="52.139722" lon="-128.063611">
<ele>49.3776</ele>
<magvar>339.0</magvar>
<name>CYJQ</name>
<cmt>BELLA BELLA (DENNY ISLAND),BC,CA</cmt>
<type>AIRPORT</type>
<extensions>
<navaid:name>BELLA BELLA (DENNY ISLAND)</navaid:name>
<navaid:state>BC</navaid:state>
<navaid:country>CA</navaid:country>
<navaid:lastupdate>2009-12-15</navaid:lastupdate>
<navaid:frequencies>
<navaid:frequency type="TFC" frequency="122.800" name="TFC"/>
<navaid:frequency type="CTAF" frequency="122.8" name="CTAF"/>
</navaid:frequencies>
<navaid:runways>
<navaid:runway designation="10/28" length="2900" width="100" surface="ASPHALT">
</navaid:runway>
</navaid:runways>
<navaid:magvar>-21</navaid:magvar>
</extensions>
</wpt>
<wpt lat="50.783333" lon="-121.316667">
<ele>619.9632</ele>
<magvar>341.0</magvar>
<name>CAZ5</name>
<cmt>CACHE CREEK,BC,CA</cmt>
<type>AIRPORT</type>
<extensions>
<navaid:name>CACHE CREEK</navaid:name>
<navaid:state>BC</navaid:state>
<navaid:country>CA</navaid:country>
<navaid:hasfuel>true</navaid:hasfuel>
<navaid:lastupdate>2009-12-15</navaid:lastupdate>
<navaid:frequencies>
<navaid:frequency type="CTAF" frequency="123.200" name="CTAF"/>
</navaid:frequencies>
<navaid:runways>
<navaid:runway designation="15/33" length="3280" width="75" surface="ASP">
<navaid:beginning lat="50.787778" lon="-121.317781">
<navaid:heading>171.0</navaid:heading>
</navaid:beginning>
<navaid:ending lat="50.778889" lon="-121.315550">
<navaid:heading>351.0</navaid:heading>
</navaid:ending>
</navaid:runway>
</navaid:runways>
<navaid:magvar>-19</navaid:magvar>
</extensions>
</wpt>
<wpt lat="50.010833" lon="-125.242500">
<ele>69.4944</ele>
<magvar>340.0</magvar>
<name>CAT6</name>
<cmt><![CDATA[CAMPBELL RIVER (CAMPBELL RIVER & DIST GEN HOSP) ,BC,CA]]></cmt>
<type>HELIPORT</type>
<extensions>
<navaid:name><![CDATA[CAMPBELL RIVER (CAMPBELL RIVER & DIST GEN HOSP) ]]></navaid:name>
<navaid:state>BC</navaid:state>
<navaid:country>CA</navaid:country>
<navaid:lastupdate>2010-11-13</navaid:lastupdate>
<navaid:magvar>-20</navaid:magvar>
</extensions>
</wpt>
<wpt lat="50.041667" lon="-125.275000">
<ele>2.1336</ele>
<magvar>340.0</magvar>
<name>CCR6</name>
<cmt><![CDATA[CAMPBELL RIVER (E & B HELI) ,BC,CA]]></cmt>
<type>HELIPORT</type>
<extensions>
<navaid:name><![CDATA[CAMPBELL RIVER (E & B HELI) ]]></navaid:name>
<navaid:state>BC</navaid:state>
<navaid:country>CA</navaid:country>
<navaid:hasfuel>true</navaid:hasfuel>
<navaid:lastupdate>2010-11-13</navaid:lastupdate>
<navaid:magvar>-20</navaid:magvar>
</extensions>
</wpt>
<wpt lat="49.107778" lon="-122.480278">
<ele>91.44</ele>
<magvar>341.0</magvar>
<name>CHK2</name>
<cmt>ALDERGROVE (HICKS) ,BC,CA</cmt>
<type>HELIPORT</type>
<extensions>
<navaid:name>ALDERGROVE (HICKS) </navaid:name>
<navaid:state>BC</navaid:state>
<navaid:country>CA</navaid:country>
<navaid:lastupdate>2009-12-15</navaid:lastupdate>
<navaid:magvar>-19</navaid:magvar>
</extensions>
</wpt>
<wpt lat="50.582222" lon="-126.915556">
<ele>73.152</ele>
<magvar>340.0</magvar>
<name>CYAL</name>
<cmt>ALERT BAY,BC,CA</cmt>
<type>AIRPORT</type>
<extensions>
<navaid:name>ALERT BAY</navaid:name>
<navaid:state>BC</navaid:state>
<navaid:country>CA</navaid:country>
<navaid:lastupdate>2009-12-15</navaid:lastupdate>
<navaid:frequencies>
<navaid:frequency type="TFC" frequency="122.800" name="TFC"/>
<navaid:frequency type="CTAF" frequency="122.8" name="CTAF"/>
</navaid:frequencies>
<navaid:runways>
<navaid:runway designation="09/27" length="2900" width="75" surface="ASPHALT">
</navaid:runway>
</navaid:runways>
<navaid:magvar>-20</navaid:magvar>
</extensions>
</wpt>
<wpt lat="52.116667" lon="-119.283333">
<ele>682.752</ele>
<magvar>341.0</magvar>
<name>CYCP</name>
<cmt>BLUE RIVER,BC,CA</cmt>
<type>AIRPORT</type>
<extensions>
<navaid:name>BLUE RIVER</navaid:name>
<navaid:state>BC</navaid:state>
<navaid:country>CA</navaid:country>
<navaid:lastupdate>2009-12-15</navaid:lastupdate>
<navaid:frequencies>
<navaid:frequency type="CTAF" frequency="123.200" name="CTAF"/>
</navaid:frequencies>
<navaid:runways>
<navaid:runway designation="01/19" length="5000" width="60" surface="ASP">
<navaid:beginning lat="52.110833" lon="-119.290561">
<navaid:heading>32.0</navaid:heading>
</navaid:beginning>
<navaid:ending lat="52.122500" lon="-119.278889">
<navaid:heading>212.0</navaid:heading>
</navaid:ending>
</navaid:runway>
</navaid:runways>
<navaid:magvar>-19</navaid:magvar>
</extensions>
</wpt>
<wpt lat="49.296111" lon="-117.632500">
<ele>495.6048</ele>
<magvar>342.0</magvar>
<name>CYCG</name>
<cmt>CASTLEGAR/WEST KOOTENAY REGIONAL,CASTLEGAR,BC,CA</cmt>
<type>AIRPORT</type>
<extensions>
<navaid:name>CASTLEGAR/WEST KOOTENAY REGIONAL</navaid:name>
<navaid:address>CASTLEGAR</navaid:address>
<navaid:state>BC</navaid:state>
<navaid:country>CA</navaid:country>
<navaid:hasfuel>true</navaid:hasfuel>
<navaid:lastupdate>2010-11-13</navaid:lastupdate>
<navaid:frequencies>
<navaid:frequency type="CTAF" frequency="122.100" name="CTAF"/>
<navaid:frequency type="RDO" frequency="122.100" name="RDO"/>
<navaid:frequency type="RCO" frequency="126.700" name="KAMLOOPS RDO"/>
<navaid:frequency type="CNTR" frequency="134.200" name="VANCOUVER CNTR"/>
</navaid:frequencies>
<navaid:runways>
<navaid:runway designation="15/33" length="5300" width="150" surface="ASP">
<navaid:beginning lat="49.303353" lon="-117.634625">
<navaid:heading>169.0</navaid:heading>
<navaid:elev>1615</navaid:elev>
</navaid:beginning>
<navaid:ending lat="49.289092" lon="-117.630383">
<navaid:heading>349.0</navaid:heading>
<navaid:elev>1621</navaid:elev>
</navaid:ending>
</navaid:runway>
</navaid:runways>
<navaid:magvar>-18</navaid:magvar>
</extensions>
</wpt>
<wpt lat="49.386111" lon="-117.552500">
<ele>497.4336</ele>
<magvar>342.0</magvar>
<name>CCT3</name>
<cmt>CASTLEGAR (TARRYS CONVENTION CENTRE) ,BC,CA</cmt>
<type>HELIPORT</type>
<extensions>
<navaid:name>CASTLEGAR (TARRYS CONVENTION CENTRE) </navaid:name>
<navaid:state>BC</navaid:state>
<navaid:country>CA</navaid:country>
<navaid:hasfuel>true</navaid:hasfuel>
<navaid:lastupdate>2010-11-13</navaid:lastupdate>
<navaid:magvar>-18</navaid:magvar>
</extensions>
</wpt>
<wpt lat="55.687222" lon="-121.626667">
<ele>609.2952</ele>
<magvar>338.0</magvar>
<name>CYCQ</name>
<cmt>CHETWYND,BC,CA</cmt>
<type>AIRPORT</type>
<extensions>
<navaid:name>CHETWYND</navaid:name>
<navaid:state>BC</navaid:state>
<navaid:country>CA</navaid:country>
<navaid:hasfuel>true</navaid:hasfuel>
<navaid:lastupdate>2010-11-20</navaid:lastupdate>
<navaid:frequencies>
<navaid:frequency type="CTAF" frequency="123.200" name="CTAF"/>
<navaid:frequency type="RCO" frequency="126.700" name="EDMONTON RDO"/>
</navaid:frequencies>
<navaid:runways>
<navaid:runway designation="05/23" length="4484" width="100" surface="ASP">
<navaid:beginning lat="55.685350" lon="-121.637019">
<navaid:heading>72.0</navaid:heading>
</navaid:beginning>
<navaid:ending lat="55.689072" lon="-121.616300">
<navaid:heading>252.0</navaid:heading>
</navaid:ending>
</navaid:runway>
</navaid:runways>
<navaid:magvar>-22</navaid:magvar>
</extensions>
</wpt>
<wpt lat="51.626111" lon="-124.141944">
<ele>1173.48</ele>
<magvar>340.0</magvar>
<name>CAG3</name>
<cmt>CHILKO LAKE (TSYLOS PARK LODGE),BC,CA</cmt>
<type>AIRPORT</type>
<extensions>
<navaid:name>CHILKO LAKE (TSYLOS PARK LODGE)</navaid:name>
<navaid:state>BC</navaid:state>
<navaid:country>CA</navaid:country>
<navaid:lastupdate>2009-12-15</navaid:lastupdate>
<navaid:frequencies>
<navaid:frequency type="TFC" frequency="122.800" name="TFC"/>
<navaid:frequency type="CTAF" frequency="122.8" name="CTAF"/>
</navaid:frequencies>
<navaid:runways>
<navaid:runway designation="18/36" length="3200" width="50" surface="GRAVEL">
</navaid:runway>
</navaid:runways>
<navaid:magvar>-20</navaid:magvar>
</extensions>
</wpt>
<wpt lat="49.152778" lon="-121.938889">
<ele>9.7536</ele>
<magvar>341.0</magvar>
<name>CYCW</name>
<cmt>CHILLIWACK,BC,CA</cmt>
<type>AIRPORT</type>
<extensions>
<navaid:name>CHILLIWACK</navaid:name>
<navaid:state>BC</navaid:state>
<navaid:country>CA</navaid:country>
<navaid:hasfuel>true</navaid:hasfuel>
<navaid:lastupdate>2009-12-15</navaid:lastupdate>
<navaid:frequencies>
<navaid:frequency type="UNIC" frequency="122.700" name="CTAF/UNICOM"/>
</navaid:frequencies>
<navaid:runways>
<navaid:runway designation="07/25" length="3990" width="75" surface="ASP">
<navaid:beginning lat="49.151942" lon="-121.947219">
<navaid:heading>81.0</navaid:heading>
<navaid:elev>31</navaid:elev>
</navaid:beginning>
<navaid:ending lat="49.153611" lon="-121.930561">
<navaid:heading>261.0</navaid:heading>
<navaid:elev>28</navaid:elev>
</navaid:ending>
</navaid:runway>
</navaid:runways>
<navaid:magvar>-19</navaid:magvar>
</extensions>
</wpt>
<wpt lat="49.666667" lon="-125.100000">
<ele>152.4</ele>
<magvar>341.0</magvar>
<name>CCS6</name>
<cmt>COURTENAY (SMIT FIELD),BC,CA</cmt>
<type>AIRPORT</type>
<extensions>
<navaid:name>COURTENAY (SMIT FIELD)</navaid:name>
<navaid:state>BC</navaid:state>
<navaid:country>CA</navaid:country>
<navaid:lastupdate>2010-11-13</navaid:lastupdate>
<navaid:magvar>-19</navaid:magvar>
</extensions>
</wpt>
<wpt lat="49.612222" lon="-115.781944">
<ele>940.0032</ele>
<magvar>343.0</magvar>
<name>CYXC</name>
<cmt>CRANBROOK/CANADIAN ROCKIES INTL,CRANBROOK,BC,CA</cmt>
<type>AIRPORT</type>
<extensions>
<navaid:name>CRANBROOK/CANADIAN ROCKIES INTL</navaid:name>
<navaid:address>CRANBROOK</navaid:address>
<navaid:state>BC</navaid:state>
<navaid:country>CA</navaid:country>
<navaid:hasfuel>true</navaid:hasfuel>
<navaid:lastupdate>2009-12-15</navaid:lastupdate>
<navaid:frequencies>
<navaid:frequency type="A/G" frequency="122.300" name="MF"/>
<navaid:frequency type="RDO" frequency="122.300" name="RDO"/>
<navaid:frequency type="RCO" frequency="126.700" name="PACIFIC RDO"/>
<navaid:frequency type="CNTR" frequency="133.600" name="VANCOUVER CNTR"/>
</navaid:frequencies>
<navaid:runways>
<navaid:runway designation="16/34" length="8000" width="150" surface="ASP">
<navaid:beginning lat="49.623081" lon="-115.782303">
<navaid:heading>179.0</navaid:heading>
<navaid:elev>3034</navaid:elev>
</navaid:beginning>
<navaid:ending lat="49.601161" lon="-115.781806">
<navaid:heading>359.0</navaid:heading>
<navaid:elev>3082</navaid:elev>
</navaid:ending>
</navaid:runway>
</navaid:runways>
<navaid:magvar>-17</navaid:magvar>
</extensions>
</wpt>
<wpt lat="49.512500" lon="-115.750000">
<ele>929.64</ele>
<magvar>343.0</magvar>
<name>CAE2</name>
<cmt>CRANBROOK (EAST KOOTENAY REGIONAL HOSP) ,BC,CA</cmt>
<type>HELIPORT</type>
<extensions>
<navaid:name>CRANBROOK (EAST KOOTENAY REGIONAL HOSP) </navaid:name>
<navaid:state>BC</navaid:state>
<navaid:country>CA</navaid:country>
<navaid:lastupdate>2010-11-13</navaid:lastupdate>
<navaid:magvar>-17</navaid:magvar>
</extensions>
</wpt>
<wpt lat="49.666667" lon="-116.816667">
<ele>536.448</ele>
<magvar>342.0</magvar>
<name>CAR2</name>
<cmt>CRAWFORD BAY,BC,CA</cmt>
<type>AIRPORT</type>
<extensions>
<navaid:name>CRAWFORD BAY</navaid:name>
<navaid:state>BC</navaid:state>
<navaid:country>CA</navaid:country>
<navaid:lastupdate>2009-12-15</navaid:lastupdate>
<navaid:frequencies>
<navaid:frequency type="TFC" frequency="123.200" name="TFC"/>
<navaid:frequency type="CTAF" frequency="123.2" name="CTAF"/>
</navaid:frequencies>
<navaid:runways>
<navaid:runway designation="14/32" length="2700" width="75" surface="TURF">
</navaid:runway>
</navaid:runways>
<navaid:magvar>-18</navaid:magvar>
</extensions>
</wpt>
<wpt lat="49.036667" lon="-116.498056">
<ele>638.2512</ele>
<magvar>343.0</magvar>
<name>CAJ3</name>
<cmt>CRESTON,BC,CA</cmt>
<type>AIRPORT</type>
<extensions>
<navaid:name>CRESTON</navaid:name>
<navaid:state>BC</navaid:state>
<navaid:country>CA</navaid:country>
<navaid:hasfuel>true</navaid:hasfuel>
<navaid:lastupdate>2010-11-13</navaid:lastupdate>
<navaid:frequencies>
<navaid:frequency type="UNIC" frequency="122.800" name="CTAF/UNICOM"/>
</navaid:frequencies>
<navaid:runways>
<navaid:runway designation="15/33" length="3945" width="75" surface="ASP">
<navaid:beginning lat="49.042222" lon="-116.500000">
<navaid:heading>168.0</navaid:heading>
</navaid:beginning>
<navaid:ending lat="49.031667" lon="-116.496669">
<navaid:heading>348.0</navaid:heading>
</navaid:ending>
</navaid:runway>
</navaid:runways>
<navaid:magvar>-17</navaid:magvar>
</extensions>
</wpt>
<wpt lat="55.742222" lon="-120.183056">
<ele>654.4056</ele>
<magvar>339.0</magvar>
<name>CYDQ</name>
<cmt>DAWSON CREEK,DAWSON CREEK,BC,CA</cmt>
<type>AIRPORT</type>
<extensions>
<navaid:name>DAWSON CREEK</navaid:name>
<navaid:address>DAWSON CREEK</navaid:address>
<navaid:state>BC</navaid:state>
<navaid:country>CA</navaid:country>
<navaid:hasfuel>true</navaid:hasfuel>
<navaid:lastupdate>2010-11-13</navaid:lastupdate>
<navaid:frequencies>
<navaid:frequency type="A/G" frequency="122.200" name="MF PEACE RIVER RDO"/>
<navaid:frequency type="RDO" frequency="122.200" name="RCO"/>
<navaid:frequency type="CTAF" frequency="122.2" name="CTAF"/>
</navaid:frequencies>
<navaid:runways>
<navaid:runway designation="06/24" length="5000" width="150" surface="ASP">
<navaid:beginning lat="55.741111" lon="-120.193611">
<navaid:heading>85.0</navaid:heading>
<navaid:elev>2146</navaid:elev>
</navaid:beginning>
<navaid:ending lat="55.742222" lon="-120.169439">
<navaid:heading>265.0</navaid:heading>
<navaid:elev>2145</navaid:elev>
</navaid:ending>
</navaid:runway>
</navaid:runways>
<navaid:magvar>-21</navaid:magvar>
</extensions>
</wpt>
<wpt lat="55.820556" lon="-120.452778">
<ele>816.864</ele>
<magvar>339.0</magvar>
<name>CDC3</name>
<cmt>DAWSON CREEK (FLYING L RANCH),BC,CA</cmt>
<type>AIRPORT</type>
<extensions>
<navaid:name>DAWSON CREEK (FLYING L RANCH)</navaid:name>
<navaid:state>BC</navaid:state>
<navaid:country>CA</navaid:country>
<navaid:lastupdate>2009-12-15</navaid:lastupdate>
<navaid:magvar>-21</navaid:magvar>
</extensions>
</wpt>
<wpt lat="49.073611" lon="-122.941111">
<ele>3.048</ele>
<magvar>341.0</magvar>
<name>CAK3</name>
<cmt>DELTA/DELTA HERITAGE AIR PARK,BC,CA</cmt>
<type>AIRPORT</type>
<extensions>
<navaid:name>DELTA/DELTA HERITAGE AIR PARK</navaid:name>
<navaid:state>BC</navaid:state>
<navaid:country>CA</navaid:country>
<navaid:hasfuel>true</navaid:hasfuel>
<navaid:lastupdate>2009-12-15</navaid:lastupdate>
<navaid:frequencies>
<navaid:frequency type="TFC" frequency="123.300" name="TFC"/>
<navaid:frequency type="CTAF" frequency="123.3" name="CTAF"/>
</navaid:frequencies>
<navaid:runways>
<navaid:runway designation="07/25" length="2600" width="75" surface="TURF">
</navaid:runway>
</navaid:runways>
<navaid:magvar>-19</navaid:magvar>
</extensions>
</wpt>
<wpt lat="51.512778" lon="-123.804444">
<ele>1243.584</ele>
<magvar>340.0</magvar>
<name>CBL9</name>
<cmt>ELKIN CREEK GUEST RANCH,BC,CA</cmt>
<type>AIRPORT</type>
<extensions>
<navaid:name>ELKIN CREEK GUEST RANCH</navaid:name>
<navaid:state>BC</navaid:state>
<navaid:country>CA</navaid:country>
<navaid:lastupdate>2009-12-15</navaid:lastupdate>
<navaid:frequencies>
<navaid:frequency type="TFC" frequency="123.200" name="TFC"/>
<navaid:frequency type="CTAF" frequency="123.2" name="CTAF"/>
</navaid:frequencies>
<navaid:runways>
<navaid:runway designation="18/36" length="4000" width="45" surface="TURF">
</navaid:runway>
</navaid:runways>
<navaid:magvar>-20</navaid:magvar>
</extensions>
</wpt>
<wpt lat="49.283333" lon="-115.150000">
<ele>868.68</ele>
<magvar>343.0</magvar>
<name>CBE2</name>
<cmt>ELKO,BC,CA</cmt>
<type>AIRPORT</type>
<extensions>
<navaid:name>ELKO</navaid:name>
<navaid:state>BC</navaid:state>
<navaid:country>CA</navaid:country>
<navaid:lastupdate>2010-11-13</navaid:lastupdate>
<navaid:frequencies>
<navaid:frequency type="TFC" frequency="123.200" name="TFC"/>
<navaid:frequency type="CTAF" frequency="123.2" name="CTAF"/>
</navaid:frequencies>
<navaid:runways>
<navaid:runway designation="03/21" length="3000" width="100" surface="TURF">
</navaid:runway>
</navaid:runways>
<navaid:magvar>-17</navaid:magvar>
</extensions>
</wpt>